"code","title","address","address_detail","phone","lat","lng","open_date","end_date","start_hhmm","end_hhmm","is_24h","svc_parcel","svc_atm","svc_wine","svc_coffee","svc_smoothie","svc_apple","svc_toto","svc_auto","svc_pickup","svc_chicken","svc_noodle","tobacco_license","first_seen_at","last_seen_at"
"00897","가산GBC점","서울특별시 금천구 가산디지털1로 165(가산동)","101호","","37.4802275551346","126.881027516845","2015-04-13","","00:00","00:00",1,0,0,1,0,0,0,0,0,0,0,0,0,"2026-04-29","2026-04-29"
"00926","바람의언덕점","경상남도 거제시 남부면 해금강로 124","","","34.7404878179156","128.663029314117","2015-04-25","","08:00","23:00",0,0,0,0,0,0,0,0,0,0,0,0,0,"2026-04-29","2026-04-29"
"00936","김포올림픽점","경기도 김포시 고촌읍 벌말로 768-70","","","37.5892715783032","126.799853627088","2015-04-30","","05:00","23:00",0,0,0,0,0,0,0,0,0,0,0,0,0,"2026-04-29","2026-04-29"
"00939","울산터미널점","울산광역시 남구  화합로 146(삼산동)","","","35.5376823747373","129.340251413154","2015-04-30","","06:00","00:00",0,0,0,0,1,0,0,0,0,0,0,0,0,"2026-04-29","2026-04-29"
"00940","청담하나점","서울특별시 강남구 도산대로78길 31(청담동)","","","37.5222197291287","127.046363182491","2015-04-29","","07:00","01:00",0,0,0,0,0,0,0,0,0,0,0,0,0,"2026-04-29","2026-04-29"
