"code","title","address","address_detail","phone","lat","lng","open_date","end_date","start_hhmm","end_hhmm","is_24h","svc_parcel","svc_atm","svc_wine","svc_coffee","svc_smoothie","svc_apple","svc_toto","svc_auto","svc_pickup","svc_chicken","svc_noodle","tobacco_license","first_seen_at","last_seen_at"
"02879","평택합정제일점","경기도 평택시 조개터로 5","나동 1층 상가","","36.9878626245986","127.101022365334","2017-05-05","","06:00","01:00",0,0,0,0,1,0,0,0,0,0,0,0,0,"2026-04-29","2026-04-29"
"02933","신세계강남점","서울특별시 서초구 신반포로 176","신세계백화점B2층 임직원 식당","","37.5039351769908","127.002413006799","2017-05-01","","10:00","20:00",0,0,0,1,0,0,0,0,0,0,0,0,0,"2026-04-29","2026-04-29"
"02963","계룡포스코점","충청남도 계룡시 두마면 사계로 101(계룡 더 샵 아파트)","","","36.2671650797373","127.272304315559","2017-05-22","","07:00","00:00",0,1,0,0,1,0,0,0,0,0,0,0,0,"2026-04-29","2026-04-29"
"02986","중부대입구점","경기도 고양시 덕양구 동헌로 297(대자동)","라동1층(대자동)","","37.711662389048","126.887822157383","2017-05-26","","00:00","00:00",1,0,0,0,0,0,0,0,0,0,0,0,0,"2026-04-29","2026-04-29"
"02990","송파엠스테이트점","서울특별시 송파구 법원로 114","B동 B1층","","37.4860552797801","127.12100938212","2017-05-31","","06:00","22:00",0,1,0,0,1,0,1,0,0,0,0,0,0,"2026-04-29","2026-04-29"
"03005","광주장지점","경기도 광주시  태봉로1번길 13 (장지동)","","","37.3927095787758","127.232896373131","2017-05-30","","06:00","00:00",0,0,0,0,1,0,0,0,0,0,0,0,0,"2026-04-29","2026-04-29"
"03012","서울조선호텔점","서울특별시 중구 소공로 106","지하1층","","37.5644841324893","126.980184460247","2017-05-31","","00:00","00:00",1,0,0,0,1,0,0,0,1,0,0,0,0,"2026-04-29","2026-04-29"
"03019","원흥유스퀘어점","경기도 고양시 덕양구 삼송로 12(원흥동)","반도유스퀘어 124호","","37.6496166416452","126.875530670502","2017-05-31","","07:00","22:00",0,0,1,0,1,0,0,0,0,0,0,0,0,"2026-04-29","2026-04-29"
"03022","신탄진타운점","대전광역시 대덕구 신탄진동로36번길 3","","","36.4478977123231","127.433470371836","2017-05-31","","00:00","00:00",1,1,1,1,1,0,0,0,0,0,1,0,0,"2026-04-29","2026-04-29"
