code,title,sido,sigungu,lat,lng,first_seen_at,last_seen_at
00060,동대사랑점,서울특별시,중구,37.5615661736021,126.997217631805,2026-04-29,2026-04-29
00087,중림점,서울특별시,중구,37.5608187887289,126.968225883547,2026-04-29,2026-04-29
00115,광화문시대점,서울특별시,종로구,37.5737729016185,126.973125723031,2026-04-29,2026-04-29
00194,역촌타운점,서울특별시,은평구,37.6024569483723,126.914783949058,2026-04-29,2026-04-29
00204,동현주유소점,경기도,화성시,37.1271536520965,126.900970980565,2026-04-29,2026-04-29
00212,신정역점,서울특별시,양천구,37.5250200374681,126.85757787245,2026-04-29,2026-04-29
00258,센트럴시티점,서울특별시,서초구,37.5039351769908,127.002413006799,2026-04-29,2026-04-29
00279,강동본점,서울특별시,강동구,37.5361883008576,127.125589975399,2026-04-29,2026-04-29
00281,월계본점,서울특별시,노원구,37.6327129055073,127.043706201158,2026-04-29,2026-04-29
00307,메리어트점,서울특별시,서초구,37.5044921229104,127.007845270854,2026-04-29,2026-04-29
00326,대부도점,경기도,안산시,37.2882891573233,126.575993765126,2026-04-29,2026-04-29
00339,광운대역점,서울특별시,노원구,37.62350432752,127.061060877189,2026-04-29,2026-04-29
00367,안산한양대점,경기도,안산시,37.3011466397331,126.838298877265,2026-04-29,2026-04-29
00389,방학학마을점,서울특별시,도봉구,37.6672131243295,127.03922467304,2026-04-29,2026-04-29
00459,청주산남점,충청북도,청주시,36.6125969035843,127.464015820906,2026-04-29,2026-04-29
00523,수지희망점,경기도,용인시,37.3221767227926,127.095281509162,2026-04-29,2026-04-29
00542,내리점,경기도,안성시,36.9995896941081,127.222674051889,2026-04-29,2026-04-29
00545,간석점,인천광역시,남동구,37.4682906535805,126.707046423928,2026-04-29,2026-04-29
00581,목동공원점,서울특별시,양천구,37.5316029751694,126.875987719154,2026-04-29,2026-04-29
00603,부천오정점,경기도,부천시,37.5243093905319,126.785871604439,2026-04-29,2026-04-29
00737,안산초지점,경기도,안산시,37.3145186621399,126.820097509407,2026-04-29,2026-04-29
00752,여주태평점,경기도,여주시,37.2024431207681,127.545872581,2026-04-29,2026-04-29
00766,이마트24본점,서울특별시,성동구,37.5478007395623,127.064456729834,2026-04-29,2026-04-29
00795,사하국제점,부산광역시,사하구,35.1015976303553,128.976177117753,2026-04-29,2026-04-29
00826,성서방통대점,대구광역시,달서구,35.8590478601549,128.495642044333,2026-04-29,2026-04-29
00833,전북대원룸점,전북특별자치도,전주시,35.8393284053797,127.135448230682,2026-04-29,2026-04-29
00836,보령남포로드점,충청남도,보령시,36.3261996748914,126.602641026225,2026-04-29,2026-04-29
00843,고양중부대점,경기도,고양시,37.7137682673659,126.888618095364,2026-04-29,2026-04-29
00872,성서주공점,대구광역시,달서구,35.8537763579924,128.498758213206,2026-04-29,2026-04-29
00884,원주연대점,강원특별자치도,원주시,37.2752016732282,127.907333774108,2026-04-29,2026-04-29
00897,가산GBC점,서울특별시,금천구,37.4802275551346,126.881027516845,2026-04-29,2026-04-29
00926,바람의언덕점,경상남도,거제시,34.7404878179156,128.663029314117,2026-04-29,2026-04-29
00936,김포올림픽점,경기도,김포시,37.5892715783032,126.799853627088,2026-04-29,2026-04-29
00939,울산터미널점,울산광역시,남구,35.5376823747373,129.340251413154,2026-04-29,2026-04-29
00940,청담하나점,서울특별시,강남구,37.5222197291287,127.046363182491,2026-04-29,2026-04-29
00955,화성일진산단점,경기도,화성시,37.1868333616822,127.004851711334,2026-04-29,2026-04-29
00967,울산목화점,울산광역시,남구,35.5358259820036,129.331949652556,2026-04-29,2026-04-29
00968,양산석산점,경상남도,양산시,35.3161528817108,129.025644587011,2026-04-29,2026-04-29
00971,미아지웰점,서울특별시,강북구,37.633289229074,127.026187964977,2026-04-29,2026-04-29
00976,덕양지도공원점,경기도,고양시,37.6271317925811,126.827755752956,2026-04-29,2026-04-29
00989,광주무등파크점,광주광역시,동구,35.1487597375332,126.946834844587,2026-04-29,2026-04-29
01006,통영더팰리스점,경상남도,통영시,34.8842441466585,128.414541672213,2026-04-29,2026-04-29
01013,인천용현점,인천광역시,미추홀구,37.4540205323627,126.658061061029,2026-04-29,2026-04-29
01018,사암휴게소점,경기도,용인시,37.18036554212,127.304549954818,2026-04-29,2026-04-29
01027,대전선화점,대전광역시,중구,36.325951849639,127.419743480932,2026-04-29,2026-04-29
01029,거제옥포점,경상남도,거제시,34.8977299994084,128.688260956026,2026-04-29,2026-04-29
01059,부산구평점,부산광역시,사하구,35.0856425664386,128.985745410167,2026-04-29,2026-04-29
01073,아산음봉점,충청남도,아산시,36.8743472162917,127.065876135212,2026-04-29,2026-04-29
01103,동대문역사문화공원역점,서울특별시,중구,37.5650278404161,127.007904473562,2026-04-29,2026-04-29
01192,사창대로점,충청북도,청주시,36.6369383227267,127.459743179737,2026-04-29,2026-04-29
01240,중구소공점,서울특별시,중구,37.5637773285922,126.979816113982,2026-04-29,2026-04-29
01268,창원중앙점,경상남도,창원시,35.2212330174363,128.676827504521,2026-04-29,2026-04-29
01325,판교SG점,경기도,성남시,37.3969338517305,127.112531722673,2026-04-29,2026-04-29
01383,청주예체로점,충청북도,청주시,36.6277739960695,127.468606447404,2026-04-29,2026-04-29
01386,식사스타타워점,경기도,고양시,37.6779379522166,126.812160775973,2026-04-29,2026-04-29
01416,성북정릉점,서울특별시,성북구,37.6093635408678,127.007786055094,2026-04-29,2026-04-29
01441,불광역점,서울특별시,은평구,37.6089317381296,126.92970053761,2026-04-29,2026-04-29
01442,신정현대홈타운점,울산광역시,남구,35.5295938984961,129.325507909713,2026-04-29,2026-04-29
01450,한국병원점,충청북도,청주시,36.6198525722168,127.496279527819,2026-04-29,2026-04-29
01451,코모도점,부산광역시,중구,35.1085572418896,129.035583646315,2026-04-29,2026-04-29
01459,신천휴먼시아점,대구광역시,동구,35.8711772264673,128.615939809984,2026-04-29,2026-04-29
01486,청주형석점,충청북도,청주시,36.6250796640755,127.442503247537,2026-04-29,2026-04-29
01516,자양우성점,서울특별시,광진구,37.5355154356699,127.075402037711,2026-04-29,2026-04-29
01538,아산염치점,충청남도,아산시,36.822066146248,126.947068582178,2026-04-29,2026-04-29
01558,광명소하점,경기도,광명시,37.4334733378529,126.879012610104,2026-04-29,2026-04-29
01559,평택고덕삼성점,경기도,평택시,37.0213848315816,127.057609930251,2026-04-29,2026-04-29
01561,서울남부터미널점,서울특별시,서초구,37.4835466074664,127.015110886678,2026-04-29,2026-04-29
01566,한국영상대점,세종특별자치시,장군면,36.4413605286861,127.209903186421,2026-04-29,2026-04-29
01571,수원탑동점,경기도,수원시,37.2701617898787,126.971856265138,2026-04-29,2026-04-29
01572,청주라마다점,충청북도,청주시,36.665394056751,127.49372728411,2026-04-29,2026-04-29
01588,사근초교점,서울특별시,성동구,37.5621581281974,127.04823688607,2026-04-29,2026-04-29
01681,산남칸타빌점,충청북도,청주시,36.6098713826045,127.476134708374,2026-04-29,2026-04-29
01710,경기광주지월점,경기도,광주시,37.4186240858276,127.288857224147,2026-04-29,2026-04-29
01713,전남담양점,전라남도,담양군,35.309960351277,126.981486781955,2026-04-29,2026-04-29
01741,분당수내점,경기도,성남시,37.3650431790281,127.126459454078,2026-04-29,2026-04-29
01750,보령비치점,충청남도,보령시,36.307084313846,126.51640014307,2026-04-29,2026-04-29
01769,영등포공원점,서울특별시,영등포구,37.5154097250378,126.909187907541,2026-04-29,2026-04-29
01792,안산관산점,경기도,안산시,37.331448762892,126.798664848671,2026-04-29,2026-04-29
01808,서면비락점,부산광역시,부산진구,35.1554507616782,129.058501115477,2026-04-29,2026-04-29
01809,충주지웰점,충청북도,충주시,36.9883883748359,127.829500709684,2026-04-29,2026-04-29
01819,평택삼양점,경기도,평택시,36.9604455144269,127.04563611271,2026-04-29,2026-04-29
01842,송도탑스빌점,부산광역시,서구,35.0779097668518,129.018577031712,2026-04-29,2026-04-29
01848,원주문막점,강원특별자치도,원주시,37.3314656270467,127.84982208121,2026-04-29,2026-04-29
01862,예산종합병원점,충청남도,예산군,36.6912339206684,126.838704965881,2026-04-29,2026-04-29
01877,속초세무서점,강원특별자치도,속초시,38.1951320926365,128.576883753761,2026-04-29,2026-04-29
01894,광나루역점,서울특별시,광진구,37.545073523534,127.102739572749,2026-04-29,2026-04-29
01903,김해내동점,경상남도,김해시,35.2406139090138,128.864826570507,2026-04-29,2026-04-29
01959,울산초이스점,울산광역시,남구,35.5410774273486,129.35072722978,2026-04-29,2026-04-29
01983,수영번영로점,부산광역시,수영구,35.1679052842847,129.111133625951,2026-04-29,2026-04-29
01986,속초고속터미널점,강원특별자치도,속초시,38.1904402903501,128.598355888205,2026-04-29,2026-04-29
02008,천안공주대점,충청남도,천안시,36.8495886432964,127.152605672723,2026-04-29,2026-04-29
02010,진천성모병원점,충청북도,진천군,36.8584445268142,127.440523363759,2026-04-29,2026-04-29
02025,현대케피코점,경기도,군포시,37.3522338304385,126.958696447425,2026-04-29,2026-04-29
02032,역삼승리점,서울특별시,강남구,37.5005339869309,127.031660682357,2026-04-29,2026-04-29
02044,트레이더스하남점,경기도,하남시,37.5454364874338,127.223740478204,2026-04-29,2026-04-29
02048,가양역점,서울특별시,강서구,37.5631717283618,126.852934754398,2026-04-29,2026-04-29
02062,부산금샘점,부산광역시,금정구,35.2272998001553,129.078014431137,2026-04-29,2026-04-29
02104,창원진동점,경상남도,창원시,35.1163456410471,128.484992761042,2026-04-29,2026-04-29
02105,밀양가곡점,경상남도,밀양시,35.4755945643655,128.766295885049,2026-04-29,2026-04-29
02113,전주인후이지움점,전북특별자치도,전주시,35.846632628402,127.147844138523,2026-04-29,2026-04-29
02130,강남역점,서울특별시,강남구,37.4981646510326,127.028307900881,2026-04-29,2026-04-29
02143,백송대우점,경기도,고양시,37.6543260497114,126.794372338152,2026-04-29,2026-04-29
02189,음성원남점,충청북도,음성군,36.8934191254997,127.679776806983,2026-04-29,2026-04-29
02195,보령대천센터점,충청남도,보령시,36.3489895795339,126.588753803622,2026-04-29,2026-04-29
02196,대구보건대점,대구광역시,북구,35.9261203157053,128.544268948412,2026-04-29,2026-04-29
02234,사천호텔점,경상남도,사천시,35.0821561833501,128.085228635614,2026-04-29,2026-04-29
02235,메트로시티점,부산광역시,남구,35.1272669147748,129.109040555258,2026-04-29,2026-04-29
02237,명지부영점,부산광역시,강서구,35.0884452033821,128.873592033355,2026-04-29,2026-04-29
02258,평택이마트점,경기도,평택시,36.9993917139736,127.113954913337,2026-04-29,2026-04-29
02270,영등포KT점,서울특별시,영등포구,37.526848314445,126.905176591009,2026-04-29,2026-04-29
02281,보령동대행복점,충청남도,보령시,36.3492741518797,126.607012522965,2026-04-29,2026-04-29
02295,시흥부성점,경기도,시흥시,37.3604322831816,126.733094699113,2026-04-29,2026-04-29
02335,중구명동점,서울특별시,중구,37.5591939658366,126.983978490389,2026-04-29,2026-04-29
02336,공주의료원점,충청남도,공주시,36.4584247799335,127.110754260762,2026-04-29,2026-04-29
02344,남양주시청점,경기도,남양주시,37.636295421242,127.214030953208,2026-04-29,2026-04-29
02353,거제운동장점,경상남도,거제시,34.884282957071,128.620094165282,2026-04-29,2026-04-29
02357,쌍촌원룸점,광주광역시,서구,35.1477926763256,126.860858897454,2026-04-29,2026-04-29
02376,양평삼거리점,경기도,양평군,37.4889844480847,127.492859926364,2026-04-29,2026-04-29
02407,서산여고점,충청남도,서산시,36.7700570264167,126.468363439049,2026-04-29,2026-04-29
02413,우치공원정문점,광주광역시,북구,35.2243138841138,126.894242056873,2026-04-29,2026-04-29
02422,개봉로점,서울특별시,구로구,37.4906772205495,126.856345223758,2026-04-29,2026-04-29
02432,남양주금곡점,경기도,남양주시,37.6361802038181,127.211069984833,2026-04-29,2026-04-29
02433,춘천신북점,강원특별자치도,춘천시,37.9279128427345,127.751848017846,2026-04-29,2026-04-29
02439,동대구환승센터1호점,대구광역시,동구,35.8779406718693,128.629190024219,2026-04-29,2026-04-29
02440,동대구환승센터2호점,대구광역시,동구,35.8779406718693,128.629190024219,2026-04-29,2026-04-29
02445,청주아이웰점,충청북도,청주시,36.6706118687516,127.496708540516,2026-04-29,2026-04-29
02449,동대구환승센터3호점,대구광역시,동구,35.8779406718693,128.629190024219,2026-04-29,2026-04-29
02451,전농사거리점,서울특별시,동대문구,37.5772114550055,127.058517800585,2026-04-29,2026-04-29
02473,안산와동공원로점,경기도,안산시,37.3386662139753,126.818328264602,2026-04-29,2026-04-29
02517,성남신흥점,경기도,성남시,37.4419242939419,127.137568343931,2026-04-29,2026-04-29
02546,천안목천IC점,충청남도,천안시,36.7708309820769,127.230596818516,2026-04-29,2026-04-29
02553,검암으뜸점,인천광역시,서구,37.5666816945656,126.68060690761,2026-04-29,2026-04-29
02561,예술의전당점,서울특별시,서초구,37.4802401962069,127.014215239186,2026-04-29,2026-04-29
02597,인천어시장점,인천광역시,중구,37.4544412955042,126.607353117924,2026-04-29,2026-04-29
02600,충남부여점,충청남도,부여군,36.2830979263741,126.91424242553,2026-04-29,2026-04-29
02630,옥포베르힐점,대구광역시,달성군,35.7794534249561,128.441373306996,2026-04-29,2026-04-29
02633,성동연무장점,서울특별시,성동구,37.5422282613239,127.055740820907,2026-04-29,2026-04-29
02648,에스포항병원점,경상북도,포항시,36.0348244802874,129.331402298585,2026-04-29,2026-04-29
02651,광주유정점,광주광역시,동구,35.159163087315,126.914704867946,2026-04-29,2026-04-29
02653,계양세종병원점,인천광역시,계양구,37.5325393643882,126.736853119942,2026-04-29,2026-04-29
02662,화곡점,서울특별시,강서구,37.5382063642938,126.842199400944,2026-04-29,2026-04-29
02677,오남신우빅점,경기도,남양주시,37.6781030415434,127.211453276795,2026-04-29,2026-04-29
02681,괴정동주대점,부산광역시,사하구,35.1063544112003,128.998534003278,2026-04-29,2026-04-29
02701,사상모라점,부산광역시,사상구,35.188765893536,128.985685439692,2026-04-29,2026-04-29
02705,서산부영점,충청남도,서산시,36.7843701214888,126.444297127071,2026-04-29,2026-04-29
02715,서창1지구점,인천광역시,남동구,37.4385696437838,126.747662059929,2026-04-29,2026-04-29
02725,광주삼리점,경기도,광주시,37.3542178681174,127.32947430654,2026-04-29,2026-04-29
02734,창원팔용벽산점,경상남도,창원시,35.2547061407493,128.617297396425,2026-04-29,2026-04-29
02792,소사은성로점,경기도,부천시,37.4762237412997,126.79390928529,2026-04-29,2026-04-29
02799,공릉타운점,서울특별시,노원구,37.6267151083349,127.078400754382,2026-04-29,2026-04-29
02810,백운현대점,광주광역시,남구,35.1347878119752,126.900475471597,2026-04-29,2026-04-29
02817,신월스타점,서울특별시,양천구,37.5350493289133,126.831740380619,2026-04-29,2026-04-29
02826,청정인성수련원점,전북특별자치도,완주군,35.6859533885909,127.100063716553,2026-04-29,2026-04-29
02832,수원영화용희점,경기도,수원시,37.2907945741479,127.016322032857,2026-04-29,2026-04-29
02842,검단어울림점,인천광역시,서구,37.5956590596958,126.639263982794,2026-04-29,2026-04-29
02846,춘천강북점,강원특별자치도,춘천시,37.8993098327395,127.729112773342,2026-04-29,2026-04-29
02864,일산대화마을점,경기도,고양시,37.6731243211164,126.736178247722,2026-04-29,2026-04-29
02870,천안농수산점,충청남도,천안시,36.8596644306375,127.150194531354,2026-04-29,2026-04-29
02879,평택합정제일점,경기도,평택시,36.9878626245986,127.101022365334,2026-04-29,2026-04-29
02883,간석석정로점,인천광역시,남동구,37.4690669572616,126.692712645143,2026-04-29,2026-04-29
02888,서구가좌점,인천광역시,서구,37.4969484293801,126.669884158833,2026-04-29,2026-04-29
02889,대구신암점,대구광역시,동구,35.8806826190407,128.627577506062,2026-04-29,2026-04-29
02902,종암중앙점,서울특별시,성북구,37.597368918658,127.039387955885,2026-04-29,2026-04-29
02928,대전탄방점,대전광역시,서구,36.3464427794613,127.388569244575,2026-04-29,2026-04-29
02933,신세계강남점,서울특별시,서초구,37.5039351769908,127.002413006799,2026-04-29,2026-04-29
02934,광진군자점,서울특별시,광진구,37.5483783057086,127.069340761342,2026-04-29,2026-04-29
02963,계룡포스코점,충청남도,계룡시,36.2671650797373,127.272304315559,2026-04-29,2026-04-29
02986,중부대입구점,경기도,고양시,37.711662389048,126.887822157383,2026-04-29,2026-04-29
02990,송파엠스테이트점,서울특별시,송파구,37.4860552797801,127.12100938212,2026-04-29,2026-04-29
03005,광주장지점,경기도,광주시,37.3927095787758,127.232896373131,2026-04-29,2026-04-29
03012,서울조선호텔점,서울특별시,중구,37.5644841324893,126.980184460247,2026-04-29,2026-04-29
03019,원흥유스퀘어점,경기도,고양시,37.6496166416452,126.875530670502,2026-04-29,2026-04-29
03022,신탄진타운점,대전광역시,대덕구,36.4478977123231,127.433470371836,2026-04-29,2026-04-29
03037,서초래미안점,서울특별시,서초구,37.4974284760361,127.019150618212,2026-04-29,2026-04-29
03056,송도케이블카상부점,부산광역시,서구,35.0613530427119,129.020402714679,2026-04-29,2026-04-29
03057,동대문에비뉴점,서울특별시,중구,37.565162008038,127.006245943188,2026-04-29,2026-04-29
03065,통영항남점,경상남도,통영시,34.8405231237899,128.422710489516,2026-04-29,2026-04-29
03073,둔산중앙점,대전광역시,서구,36.3514111545619,127.374306798452,2026-04-29,2026-04-29
03076,경주IC점,경상북도,경주시,35.8168153633105,129.203116620483,2026-04-29,2026-04-29
03078,삼호동부점,경상남도,양산시,35.4125847324517,129.173596760486,2026-04-29,2026-04-29
03079,호원안말점,경기도,의정부시,37.7129400848568,127.045633773172,2026-04-29,2026-04-29
03081,대구화원점,대구광역시,달성군,35.8061463323188,128.49428088807,2026-04-29,2026-04-29
03095,수원아너스빌점,경기도,수원시,37.2970945810561,127.006568042927,2026-04-29,2026-04-29
03097,분당현대점,경기도,성남시,37.3782176661187,127.128163650891,2026-04-29,2026-04-29
03102,관악조은점,서울특별시,관악구,37.472806113146,126.935258292861,2026-04-29,2026-04-29
03111,노원청암아파트점,서울특별시,노원구,37.6625353355956,127.078136258579,2026-04-29,2026-04-29
03116,철산도덕파크점,경기도,광명시,37.4715832291923,126.865449589102,2026-04-29,2026-04-29
03130,서산동문타운점,충청남도,서산시,36.7855164600152,126.460912006616,2026-04-29,2026-04-29
03131,마곡에코점,서울특별시,강서구,37.5679745986878,126.826720979429,2026-04-29,2026-04-29
03133,부천여고점,경기도,부천시,37.4886830707527,126.762082060022,2026-04-29,2026-04-29
03138,진해석동센터점,경상남도,창원시,35.152250303323,128.703290336659,2026-04-29,2026-04-29
03153,간석오거리점,인천광역시,남동구,37.4673437850864,126.708723337278,2026-04-29,2026-04-29
03154,광주목동점,경기도,광주시,37.382065347498,127.205590333171,2026-04-29,2026-04-29
03155,안양비산점,경기도,안양시,37.407788225965,126.947411206217,2026-04-29,2026-04-29
03156,관악조원점,서울특별시,관악구,37.4844574386503,126.911159494235,2026-04-29,2026-04-29
03176,강릉올림픽파크점,강원특별자치도,강릉시,37.7728778476955,128.900505146004,2026-04-29,2026-04-29
03185,충주기업도시점,충청북도,충주시,37.0068405333781,127.816918027684,2026-04-29,2026-04-29
03187,태안만리포점,충청남도,태안군,36.7856059900004,126.142972400939,2026-04-29,2026-04-29
03195,용인보정로드점,경기도,용인시,37.31232989113,127.105349703393,2026-04-29,2026-04-29
03211,충주동량점,충청북도,충주시,37.0317830709337,127.927504387605,2026-04-29,2026-04-29
03212,보은레이크힐스호텔점,충청북도,보은군,36.533583043954,127.824750681908,2026-04-29,2026-04-29
03224,양산소주점,경상남도,양산시,35.4068736090859,129.157964045132,2026-04-29,2026-04-29
03237,해운대신라스테이점,부산광역시,해운대구,35.1598060250385,129.158725887915,2026-04-29,2026-04-29
03247,진해연세병원점,경상남도,창원시,35.1543566525366,128.698277189508,2026-04-29,2026-04-29
03250,창천원룸점,서울특별시,서대문구,37.5585465364546,126.929175560114,2026-04-29,2026-04-29
03255,용인숲속마을점,경기도,용인시,37.2424335277543,127.198273666147,2026-04-29,2026-04-29
03271,분당정자역점,경기도,성남시,37.3673672850375,127.107312889252,2026-04-29,2026-04-29
03279,구리이편한점,경기도,구리시,37.5859517151752,127.144236541152,2026-04-29,2026-04-29
03291,정릉국민대점,서울특별시,성북구,37.6072812497325,126.999586630755,2026-04-29,2026-04-29
03292,송정해수욕장점,부산광역시,해운대구,35.1809243336011,129.204156819525,2026-04-29,2026-04-29
03293,오산양산점,경기도,오산시,37.1934389441231,127.033495717405,2026-04-29,2026-04-29
03296,녹번아르체점,서울특별시,은평구,37.6038086540166,126.925495644515,2026-04-29,2026-04-29
03298,길천산업단지점,울산광역시,울주군,35.6010299633602,129.075943361314,2026-04-29,2026-04-29
03317,강릉심곡항점,강원특별자치도,강릉시,37.6649349340001,129.052865860583,2026-04-29,2026-04-29
03330,주안미추홀점,인천광역시,미추홀구,37.4616633089206,126.679891838868,2026-04-29,2026-04-29
03341,거제중앙병원점,경상남도,거제시,34.8864901645858,128.622257442886,2026-04-29,2026-04-29
03342,월평중앙점,대전광역시,서구,36.3524677260722,127.354891016834,2026-04-29,2026-04-29
03369,태릉입구역점,서울특별시,노원구,37.6177705696582,127.073771057596,2026-04-29,2026-04-29
03375,김천신음점,경상북도,김천시,36.1334046410196,128.11672514642,2026-04-29,2026-04-29
03390,동부산대점,부산광역시,해운대구,35.2323882559778,129.147474565418,2026-04-29,2026-04-29
03391,보령골드점,충청남도,보령시,36.3461543017644,126.589119726569,2026-04-29,2026-04-29
03400,아산순천향대점,충청남도,아산시,36.7718895806481,126.935444981831,2026-04-29,2026-04-29
03401,청주산성점,충청북도,청주시,36.6537538687346,127.542198323755,2026-04-29,2026-04-29
03407,오천메가박스점,경상북도,포항시,35.9744950556263,129.403426338331,2026-04-29,2026-04-29
03416,횡성읍마북로점,강원특별자치도,횡성군,37.4891432757597,127.994835576624,2026-04-29,2026-04-29
03423,하안13단지점,경기도,광명시,37.4592282479297,126.885680931021,2026-04-29,2026-04-29
03429,성신로데오점,서울특별시,성북구,37.5911564363567,127.016975506071,2026-04-29,2026-04-29
03440,아산탕정파크점,충청남도,아산시,36.8086352395353,127.044916612816,2026-04-29,2026-04-29
03445,연지동평로점,부산광역시,부산진구,35.1714318816057,129.051927709742,2026-04-29,2026-04-29
03446,부산외대원룸점,부산광역시,금정구,35.261282224487,129.086553129355,2026-04-29,2026-04-29
03460,양산이지3차점,경상남도,양산시,35.322893493547,129.027115609373,2026-04-29,2026-04-29
03461,용산메가트리움점,서울특별시,용산구,37.5325823332194,126.969753021045,2026-04-29,2026-04-29
03462,보령우연플로라점,충청남도,보령시,36.3131042009416,126.51252283784,2026-04-29,2026-04-29
03467,용현낙섬서로점,인천광역시,미추홀구,37.450546067422,126.635804983923,2026-04-29,2026-04-29
03470,양주신도시랜드마크점,경기도,양주시,37.8198459298683,127.092142820773,2026-04-29,2026-04-29
03491,오창이안점,충청북도,청주시,36.7070146677717,127.420168899,2026-04-29,2026-04-29
03495,충주엄정점,충청북도,충주시,37.0861354173587,127.915346976955,2026-04-29,2026-04-29
03504,대전용전글로벌점,대전광역시,동구,36.3578409027445,127.433204658778,2026-04-29,2026-04-29
03511,시흥새피앙점,경기도,시흥시,37.3556253467947,126.726170975503,2026-04-29,2026-04-29
03513,괴정제일점,부산광역시,사하구,35.1007238635641,128.999674002573,2026-04-29,2026-04-29
03514,포천신읍점,경기도,포천시,37.8922292404042,127.195152198246,2026-04-29,2026-04-29
03515,아산모종타운점,충청남도,아산시,36.7817333800308,127.01689096944,2026-04-29,2026-04-29
03534,남동공단점,인천광역시,남동구,37.397985651839,126.689627107759,2026-04-29,2026-04-29
03536,주월광복촌점,광주광역시,남구,35.1260428092541,126.896419428925,2026-04-29,2026-04-29
03537,효창파크점,서울특별시,용산구,37.5396091672843,126.960113360632,2026-04-29,2026-04-29
03538,용인외대입구점,경기도,용인시,37.3347015155471,127.255585987721,2026-04-29,2026-04-29
03554,구월신세계점,인천광역시,남동구,37.4597040959258,126.720231359947,2026-04-29,2026-04-29
03562,분당한솔마을점,경기도,성남시,37.3644498769797,127.120569318684,2026-04-29,2026-04-29
03565,부여규암점,충청남도,부여군,36.2708964911064,126.860604845255,2026-04-29,2026-04-29
03566,대구구암역점,대구광역시,북구,35.9254251783793,128.550678290469,2026-04-29,2026-04-29
03573,대구본점,대구광역시,중구,35.8713037860903,128.595452941315,2026-04-29,2026-04-29
03589,대전관저타운점,대전광역시,서구,36.2969338628161,127.324312424858,2026-04-29,2026-04-29
03590,목포어울림점,전라남도,목포시,34.8167699904254,126.418604510524,2026-04-29,2026-04-29
03597,장유월산점,경상남도,김해시,35.2071383490782,128.800531451859,2026-04-29,2026-04-29
03605,동래미남점,부산광역시,동래구,35.2048881883448,129.066571136028,2026-04-29,2026-04-29
03608,홍대합정점,서울특별시,마포구,37.5490392404264,126.916409286765,2026-04-29,2026-04-29
03620,속초번영로점,강원특별자치도,속초시,38.2048061277882,128.582334287675,2026-04-29,2026-04-29
03621,물금범어점,경상남도,양산시,35.3300889950908,129.011641399485,2026-04-29,2026-04-29
03627,시화조은점,경기도,시흥시,37.3407647108652,126.75367121415,2026-04-29,2026-04-29
03636,송파행운점,서울특별시,송파구,37.5036536882845,127.106460842616,2026-04-29,2026-04-29
03658,공주탄천산단점,충청남도,공주시,36.301936828612,127.063037287946,2026-04-29,2026-04-29
03661,서현스카이파크호텔점,경기도,성남시,37.3865396248408,127.121227429612,2026-04-29,2026-04-29
03664,목동파리공원점,서울특별시,양천구,37.5366321308561,126.879863427781,2026-04-29,2026-04-29
03665,기장햇살점,부산광역시,기장군,35.2419964952631,129.214128723603,2026-04-29,2026-04-29
03677,보령종합경기장점,충청남도,보령시,36.3139859267386,126.601888815571,2026-04-29,2026-04-29
03679,음성금왕점,충청북도,음성군,36.9897401346462,127.586771462293,2026-04-29,2026-04-29
03696,화성양감점,경기도,화성시,37.1115269558454,126.97430016364,2026-04-29,2026-04-29
03697,천안신방통정점,충청남도,천안시,36.7727956189524,127.135534879458,2026-04-29,2026-04-29
03704,광주동부점,광주광역시,동구,35.148877569833,126.919166421121,2026-04-29,2026-04-29
03709,울산시청행복점,울산광역시,남구,35.5383443247201,129.309807090422,2026-04-29,2026-04-29
03721,양평백안점,경기도,양평군,37.4950592930255,127.516595747638,2026-04-29,2026-04-29
03724,천안성정원룸점,충청남도,천안시,36.8182032400513,127.1418630495,2026-04-29,2026-04-29
03733,양정스마일점,부산광역시,부산진구,35.1688686488684,129.069875097636,2026-04-29,2026-04-29
03762,포항아이너스점,경상북도,포항시,35.9969149012693,129.343291157307,2026-04-29,2026-04-29
03763,양산범어점,경상남도,양산시,35.326222562905,128.999747195959,2026-04-29,2026-04-29
03764,구로구일점,서울특별시,구로구,37.4915897871462,126.876274516388,2026-04-29,2026-04-29
03770,청담본점,서울특별시,강남구,37.5250914281937,127.041707048828,2026-04-29,2026-04-29
03781,부평굴포천점,인천광역시,부평구,37.5079185071962,126.730803828489,2026-04-29,2026-04-29
03799,화성이화점,경기도,화성시,37.0417446628007,126.79889715569,2026-04-29,2026-04-29
03806,도화한나루점,인천광역시,미추홀구,37.4586113639987,126.671372003948,2026-04-29,2026-04-29
03829,강서까치산점,서울특별시,강서구,37.5303848293182,126.848917680352,2026-04-29,2026-04-29
03850,세종부강문곡점,세종특별자치시,부강면,36.5288014873425,127.388620523588,2026-04-29,2026-04-29
03851,동대문황물로점,서울특별시,동대문구,37.5690457922923,127.051850062854,2026-04-29,2026-04-29
03852,수지구청역점,경기도,용인시,37.3223733508415,127.093900579827,2026-04-29,2026-04-29
03855,원주조양병원점,강원특별자치도,원주시,37.3936629736531,127.984568116392,2026-04-29,2026-04-29
03862,부산신선대점,부산광역시,남구,35.1106845605805,129.088252113297,2026-04-29,2026-04-29
03876,울산서동원룸점,울산광역시,중구,35.5797943433024,129.343764648619,2026-04-29,2026-04-29
03879,사하오렌지점,부산광역시,사하구,35.0800213018708,128.97544336672,2026-04-29,2026-04-29
03907,울산무거한라점,울산광역시,남구,35.5518911054532,129.25853204573,2026-04-29,2026-04-29
03913,대구현대점,대구광역시,중구,35.8670574173768,128.591336727193,2026-04-29,2026-04-29
03914,서산팔봉로드점,충청남도,서산시,36.7749930348343,126.357460320027,2026-04-29,2026-04-29
03925,세종더다정점,세종특별자치시,다정중앙로,36.4949998909209,127.248559037151,2026-04-29,2026-04-29
03932,종로3가점,서울특별시,종로구,37.5728155838605,126.991920262777,2026-04-29,2026-04-29
03936,상주낙양중앙점,경상북도,상주시,36.4099977814457,128.151030644101,2026-04-29,2026-04-29
03937,창원홈런점,경상남도,창원시,35.2242800575499,128.677151591476,2026-04-29,2026-04-29
03939,춘천백령마을점,강원특별자치도,춘천시,37.8655780058306,127.738256225747,2026-04-29,2026-04-29
03941,분당경남점,경기도,성남시,37.4067423874518,127.131457368064,2026-04-29,2026-04-29
03942,동두천지행주공점,경기도,동두천시,37.895012841177,127.059702673997,2026-04-29,2026-04-29
03943,군자CGV점,서울특별시,광진구,37.5555209463909,127.0781727575,2026-04-29,2026-04-29
03949,울산온양외광점,울산광역시,울주군,35.4364947034552,129.24499431857,2026-04-29,2026-04-29
03955,삼성119점,서울특별시,강남구,37.5126363099479,127.052772890864,2026-04-29,2026-04-29
03971,구월클로버점,인천광역시,남동구,37.4501670837659,126.724179885916,2026-04-29,2026-04-29
03982,청주대점,충청북도,청주시,36.6531463228308,127.494359916744,2026-04-29,2026-04-29
03987,신세계영등포점,서울특별시,영등포구,37.5171899712591,126.905567071705,2026-04-29,2026-04-29
03991,충대평생교육원점,충청북도,청주시,36.6185571085266,127.482611661461,2026-04-29,2026-04-29
03992,메사빌딩점,서울특별시,중구,37.5603735967366,126.979601196401,2026-04-29,2026-04-29
04007,대전태평새롬점,대전광역시,중구,36.3230173035774,127.388849156187,2026-04-29,2026-04-29
04011,동매힐스점,부산광역시,사하구,35.0905778475836,128.974290744041,2026-04-29,2026-04-29
04018,김포걸포점,경기도,김포시,37.6322161900178,126.707215391621,2026-04-29,2026-04-29
04022,아산용화법원점,충청남도,아산시,36.7776969839889,127.009946775998,2026-04-29,2026-04-29
04038,울산번영두산점,울산광역시,남구,35.5281111448105,129.32821371343,2026-04-29,2026-04-29
04047,익산어양주공점,전북특별자치도,익산시,35.9574128889187,126.984211770224,2026-04-29,2026-04-29
04054,김천덕곡에이스점,경상북도,김천시,36.1130132765731,128.156664328055,2026-04-29,2026-04-29
04059,동탄KTX밸리점,경기도,화성시,37.2102235675982,127.091406813982,2026-04-29,2026-04-29
04065,부산동아대점,부산광역시,사하구,35.1121424213275,128.96599218778,2026-04-29,2026-04-29
04112,마장호수점,경기도,파주시,37.7751418535553,126.920401112901,2026-04-29,2026-04-29
04115,파장행복점,경기도,수원시,37.3074004298622,126.997489511265,2026-04-29,2026-04-29
04119,홍성내포주공점,충청남도,홍성군,36.647540248488,126.683143318598,2026-04-29,2026-04-29
04135,오천호반점,전라남도,순천시,34.9364964505246,127.491980921696,2026-04-29,2026-04-29
04144,부천원미로점,경기도,부천시,37.487634012158,126.789870488808,2026-04-29,2026-04-29
04151,신월양강점,서울특별시,양천구,37.5230247336955,126.845576239481,2026-04-29,2026-04-29
04158,수영이편한점,부산광역시,수영구,35.1808941856462,129.116517119332,2026-04-29,2026-04-29
04170,울산종가점,울산광역시,중구,35.5697858468981,129.330617332666,2026-04-29,2026-04-29
04200,관교승학점,인천광역시,남구,37.442614734916,126.693639784074,2026-04-29,2026-04-29
04204,대구과학대학교점,대구광역시,북구,35.9292535874562,128.542783261356,2026-04-29,2026-04-29
04210,포승삼부점,경기도,평택시,36.990501767387,126.845865617808,2026-04-29,2026-04-29
04213,고려병원점,부산광역시,남구,35.1349044744052,129.092605313046,2026-04-29,2026-04-29
04225,진주칠암기숙사점,경상남도,진주시,35.1773230271298,128.092580900553,2026-04-29,2026-04-29
04226,울산시티점,울산광역시,남구,35.5411072694572,129.346115720774,2026-04-29,2026-04-29
04227,김포전류포구점,경기도,김포시,37.6969564745284,126.663196178469,2026-04-29,2026-04-29
04231,강릉교동주공점,강원특별자치도,강릉시,37.7688193995245,128.885356342025,2026-04-29,2026-04-29
04247,화곡본동점,서울특별시,강서구,37.5413655136638,126.849638708076,2026-04-29,2026-04-29
04252,포스코센터점,서울특별시,강남구,37.5058149679709,127.056130956028,2026-04-29,2026-04-29
04253,신라부티크호텔점,경상북도,경주시,35.8414038018027,129.201927035688,2026-04-29,2026-04-29
04255,속초중앙로점,강원특별자치도,속초시,38.203814737497,128.591551859911,2026-04-29,2026-04-29
04258,성수이로점,서울특별시,성동구,37.5397155042798,127.06164049199,2026-04-29,2026-04-29
04267,진해용원일등점,경상남도,창원시,,,2026-04-29,2026-04-29
04273,강화흥왕리점,인천광역시,강화군,37.6034699545171,126.426675440817,2026-04-29,2026-04-29
04295,양주옥정점,경기도,양주시,37.8101246074999,127.084936995718,2026-04-29,2026-04-29
04300,평택맘모스점,경기도,평택시,36.9919213856109,127.104650917913,2026-04-29,2026-04-29
04301,부평부개본점,인천광역시,부평구,37.50079543888,126.74021602805,2026-04-29,2026-04-29
04320,연천전곡점,경기도,연천군,38.0270807300376,127.069003407068,2026-04-29,2026-04-29
04323,서면삼한점,부산광역시,부산진구,35.1585007036279,129.062020904889,2026-04-29,2026-04-29
04327,일산고봉점,경기도,고양시,37.7014934318082,126.827619216216,2026-04-29,2026-04-29
04332,대전용방점,대전광역시,동구,36.3266723173932,127.45042408851,2026-04-29,2026-04-29
04340,무안상룡점,전라남도,무안군,34.8239077699884,126.449034914907,2026-04-29,2026-04-29
04346,산정호수점,경기도,포천시,38.0660290664407,127.316756803273,2026-04-29,2026-04-29
04356,강화길상점,인천광역시,강화군,37.6196126387054,126.506706056673,2026-04-29,2026-04-29
04364,의왕대명점,경기도,의왕시,37.3623697817113,126.966442664538,2026-04-29,2026-04-29
04368,신길위브점,서울특별시,영등포구,37.5144461181495,126.913163582834,2026-04-29,2026-04-29
04374,충북영동주공점,충청북도,영동군,36.1885473083252,127.779765980443,2026-04-29,2026-04-29
04377,강화동막해변점,인천광역시,강화군,37.5929035982331,126.458942329955,2026-04-29,2026-04-29
04396,H스위트해운대점,부산광역시,해운대구,35.162888806157,129.156922025843,2026-04-29,2026-04-29
04402,관악신림점,서울특별시,관악구,37.4802789796022,126.928063499366,2026-04-29,2026-04-29
04403,김해동상점,경상남도,김해시,35.2397000376394,128.885143837706,2026-04-29,2026-04-29
04409,판교GB점,경기도,성남시,37.4004114447476,127.103132768749,2026-04-29,2026-04-29
04418,신대방역점,서울특별시,동작구,37.4877474810489,126.912260416046,2026-04-29,2026-04-29
04427,봉선시장점,광주광역시,남구,35.1280908342346,126.910496157369,2026-04-29,2026-04-29
04441,청주복대타운점,충청북도,청주시,36.631590030158,127.44519766738,2026-04-29,2026-04-29
04442,광주북동점,광주광역시,북구,35.155552883018,126.909623310655,2026-04-29,2026-04-29
04454,화도우방점,경기도,남양주시,37.6470785603252,127.298269217862,2026-04-29,2026-04-29
04455,부대북문점,부산광역시,금정구,35.2341206089786,129.083437229472,2026-04-29,2026-04-29
04461,서산SK이노베이션점,충청남도,서산시,36.8540440940037,126.45165254645,2026-04-29,2026-04-29
04462,안산반월역점,경기도,안산시,37.3113318195408,126.904085798213,2026-04-29,2026-04-29
04480,김포구래골드점,경기도,김포시,37.6435382357354,126.624120787732,2026-04-29,2026-04-29
04483,대구범어점,대구광역시,수성구,35.8586213905148,128.622702479206,2026-04-29,2026-04-29
04485,신촌빌리지점,서울특별시,서대문구,37.5584668125144,126.933379628835,2026-04-29,2026-04-29
04492,성수뚝도점,서울특별시,성동구,37.5390366342186,127.053435419628,2026-04-29,2026-04-29
04494,공항업무단지점,인천광역시,중구,37.4391267304409,126.460116976633,2026-04-29,2026-04-29
04498,대전석봉점,대전광역시,대덕구,36.448263874364,127.423548415557,2026-04-29,2026-04-29
04505,광주대쌍령점,경기도,광주시,37.3902489207449,127.289023287003,2026-04-29,2026-04-29
04515,종로창신점,서울특별시,종로구,37.5706335923883,127.012749076641,2026-04-29,2026-04-29
04516,주안용남점,인천광역시,미추홀구,37.453784221934,126.666455980933,2026-04-29,2026-04-29
04517,아산송악점,충청남도,아산시,36.7220428312202,127.006907511946,2026-04-29,2026-04-29
04519,용문휴게소점,경기도,양평군,37.4945990795001,127.593580666673,2026-04-29,2026-04-29
04528,인천문화서로점,인천광역시,남동구,37.4533150037988,126.698139618183,2026-04-29,2026-04-29
04534,인천신포역점,인천광역시,중구,37.4687788526343,126.626309987424,2026-04-29,2026-04-29
04545,부천고강본점,경기도,부천시,37.5239404569227,126.814771716751,2026-04-29,2026-04-29
04563,강릉축구공원점,강원특별자치도,강릉시,37.7423909960658,128.904206489281,2026-04-29,2026-04-29
04578,아산스파비스점,충청남도,아산시,36.8531422913822,126.981803618523,2026-04-29,2026-04-29
04592,마포서교점,서울특별시,마포구,37.5536345172539,126.920462338585,2026-04-29,2026-04-29
04594,오창양청원룸점,충청북도,청주시,36.7234168876796,127.435003048228,2026-04-29,2026-04-29
04595,SK이노베이션1호점,울산광역시,남구,35.5102455092597,129.345670845432,2026-04-29,2026-04-29
04596,SK이노베이션2호점,울산광역시,남구,35.5102455092597,129.345670845432,2026-04-29,2026-04-29
04597,SK이노베이션3호점,울산광역시,남구,35.5010172114072,129.318292162964,2026-04-29,2026-04-29
04606,평택베가팰리스점,경기도,평택시,36.9884306499731,127.114819547154,2026-04-29,2026-04-29
04610,부천삼정점,경기도,부천시,37.5166239943858,126.772877482238,2026-04-29,2026-04-29
04611,시흥센트럴병원점,경기도,시흥시,37.336844196739,126.727982612813,2026-04-29,2026-04-29
04619,화성동오점,경기도,화성시,37.1289933277615,126.951678622733,2026-04-29,2026-04-29
04623,테크노하우젠트점,대구광역시,달성군,35.6921650228178,128.458228368567,2026-04-29,2026-04-29
04635,문정에코점,서울특별시,송파구,37.4856915558446,127.114487147018,2026-04-29,2026-04-29
04636,안양박달타운점,경기도,안양시,37.4068455767578,126.90886437027,2026-04-29,2026-04-29
04671,여수여문점,전라남도,여수시,34.751820530841,127.701782869265,2026-04-29,2026-04-29
04677,울산동평점,울산광역시,남구,35.5382560823065,129.322048555653,2026-04-29,2026-04-29
04712,연천군남점,경기도,연천군,38.0850253837047,127.019715731969,2026-04-29,2026-04-29
04717,신갈웰빙점,경기도,용인시,37.2791282110557,127.106158007154,2026-04-29,2026-04-29
04721,대전관저타워점,대전광역시,서구,36.3049195291994,127.335448214684,2026-04-29,2026-04-29
04731,대전목동점,대전광역시,중구,36.3330580092628,127.409160634566,2026-04-29,2026-04-29
04736,광주도천점,광주광역시,광산구,35.2084820209854,126.816932150797,2026-04-29,2026-04-29
04739,홍성허브점,충청남도,홍성군,36.6023930042078,126.546327970636,2026-04-29,2026-04-29
04751,신방화점,서울특별시,강서구,37.5713532813908,126.815569332553,2026-04-29,2026-04-29
04756,대구본리점,대구광역시,달서구,35.8376180734416,128.542734679083,2026-04-29,2026-04-29
04777,구리토평점,경기도,구리시,37.589880332411,127.145539760274,2026-04-29,2026-04-29
04784,도봉법원점,서울특별시,도봉구,37.676180288621,127.047817507048,2026-04-29,2026-04-29
04792,삼례멋쟁이점,전북특별자치도,완주군,35.9167454649425,127.081174299142,2026-04-29,2026-04-29
04798,잠실시그마점,서울특별시,송파구,37.5146152773177,127.102522142353,2026-04-29,2026-04-29
04807,진주강남점,경상남도,진주시,35.1792024876045,128.090663560006,2026-04-29,2026-04-29
04815,시흥오이도역점,경기도,시흥시,37.3627634228643,126.736797811289,2026-04-29,2026-04-29
04824,남구로명인점,서울특별시,구로구,37.4837713378884,126.891050432775,2026-04-29,2026-04-29
04834,만덕휴먼시아점,부산광역시,북구,35.2141804436062,129.031570913312,2026-04-29,2026-04-29
04841,안양금융센터점,경기도,안양시,37.3935078942772,126.959414289663,2026-04-29,2026-04-29
04850,신세계영등포제일점,서울특별시,영등포구,37.5167808896937,126.905872997424,2026-04-29,2026-04-29
04857,봉담동화점,경기도,화성시,37.2229820923985,126.953773517771,2026-04-29,2026-04-29
04869,전포삼정코아점,부산광역시,부산진구,35.1608138794691,129.062588034163,2026-04-29,2026-04-29
04875,영통벽산점,경기도,수원시,37.23894394923,127.060457868539,2026-04-29,2026-04-29
04882,여주교동점,경기도,여주시,37.2751011255018,127.637588649298,2026-04-29,2026-04-29
04896,삼척월계점,강원특별자치도,삼척시,37.4464440980509,129.161836918528,2026-04-29,2026-04-29
04897,중동우성점,경기도,부천시,37.4979178024446,126.771002975064,2026-04-29,2026-04-29
04904,증평중앙점,충청북도,증평군,36.7791686095003,127.570189852232,2026-04-29,2026-04-29
04907,목동5A상가점,서울특별시,양천구,37.5351566093996,126.881874415824,2026-04-29,2026-04-29
04909,이태원제일점,서울특별시,용산구,37.5356361792475,126.998853630936,2026-04-29,2026-04-29
04916,심곡중심점,경기도,부천시,37.4865654134277,126.78545598273,2026-04-29,2026-04-29
04918,주례본점,부산광역시,사상구,35.1510786542621,129.013737045178,2026-04-29,2026-04-29
04942,청주충청대로점,충청북도,청주시,36.6772764679818,127.497682162101,2026-04-29,2026-04-29
04946,유성한화꿈에그린점,대전광역시,유성구,36.3889988054752,127.305548764991,2026-04-29,2026-04-29
04962,오남아이파크점,경기도,남양주시,37.6966581291444,127.201821539377,2026-04-29,2026-04-29
04965,성동플라이쿱점,서울특별시,성동구,37.5571067844131,127.072095965935,2026-04-29,2026-04-29
04975,경주현곡점,경상북도,경주시,35.8690767016373,129.202211631446,2026-04-29,2026-04-29
04977,진주보건대1호점,경상남도,진주시,35.1980582876131,128.066658147257,2026-04-29,2026-04-29
04988,인천서구우성점,인천광역시,서구,37.5498867060293,126.671115057355,2026-04-29,2026-04-29
04990,화곡베스트점,서울특별시,강서구,37.5345314694194,126.862688837271,2026-04-29,2026-04-29
05007,광탄으뜸점,경기도,파주시,37.770379425803,126.850850077948,2026-04-29,2026-04-29
05008,김포구래메가박스점,경기도,김포시,37.6449161667142,126.624480283456,2026-04-29,2026-04-29
05010,충무로앰버서더호텔점,서울특별시,중구,37.5615064355734,126.989295876044,2026-04-29,2026-04-29
05014,부평길주남로점,인천광역시,부평구,37.5040977009228,126.731589311264,2026-04-29,2026-04-29
05015,R안산중앙점,경기도,안산시,37.3180269775814,126.835165464242,2026-04-29,2026-04-29
05028,송정휴먼시아점,부산광역시,해운대구,35.1924127653793,129.206015784853,2026-04-29,2026-04-29
05034,고성상리점,경상남도,고성군,34.9954871756815,128.188587932375,2026-04-29,2026-04-29
05043,경인교대점,인천광역시,계양구,37.5386504050592,126.719596997931,2026-04-29,2026-04-29
05046,덕계금광점,경기도,양주시,37.8192651472405,127.04772203528,2026-04-29,2026-04-29
05051,수원북중점,경기도,수원시,37.2946424748036,127.022284042209,2026-04-29,2026-04-29
05052,서면티티호텔점,부산광역시,부산진구,35.1606733226816,129.056445189224,2026-04-29,2026-04-29
05056,동양타운점,인천광역시,계양구,37.5597412205375,126.759917192255,2026-04-29,2026-04-29
05058,보령성주점,충청남도,보령시,36.3369257061694,126.651644144023,2026-04-29,2026-04-29
05067,독립기념관1호점,충청남도,천안시,36.7818719998049,127.230398111736,2026-04-29,2026-04-29
05073,강서내발산점,서울특별시,강서구,37.5519811076294,126.834121515551,2026-04-29,2026-04-29
05079,오라카이청계산호텔점,서울특별시,서초구,37.4489796163738,127.054667327296,2026-04-29,2026-04-29
05082,김포풍무두송점,경기도,김포시,37.6107686261971,126.733134951021,2026-04-29,2026-04-29
05102,면목역점,서울특별시,중랑구,37.5882766400552,127.08835721877,2026-04-29,2026-04-29
05103,익산송학점,전북특별자치도,익산시,35.9416528679845,126.941778495477,2026-04-29,2026-04-29
05122,영천미소지움점,경상북도,영천시,35.9674427522069,128.941645874083,2026-04-29,2026-04-29
05125,아침고요수목원점,경기도,가평군,37.7719557619795,127.376354130748,2026-04-29,2026-04-29
05126,갈산태화점,인천광역시,부평구,37.5230722035333,126.728846756608,2026-04-29,2026-04-29
05127,속초동명점,강원특별자치도,속초시,38.2111313262152,128.59246920237,2026-04-29,2026-04-29
05148,서천오거리점,충청남도,서천군,36.0746210796593,126.699038390194,2026-04-29,2026-04-29
05154,서산센스빌점,충청남도,서산시,36.7686670336296,126.457674317326,2026-04-29,2026-04-29
05164,R김해내동경보점,경상남도,김해시,35.2383533986383,128.86814303795,2026-04-29,2026-04-29
05179,유성노블레스점,대전광역시,유성구,36.3569140553872,127.350610103477,2026-04-29,2026-04-29
05181,김해어방점,경상남도,김해시,35.2345520400314,128.904450303653,2026-04-29,2026-04-29
05185,진해남문베르디움점,경상남도,창원시,35.1031121638682,128.756538056167,2026-04-29,2026-04-29
05186,울산천사1점,울산광역시,남구,35.5394222023079,129.333453316845,2026-04-29,2026-04-29
05193,태백황지점,강원특별자치도,태백시,37.1719286019033,128.990849323778,2026-04-29,2026-04-29
05194,월성푸르지오점,대구광역시,달서구,35.8291284926895,128.52602121332,2026-04-29,2026-04-29
05198,정독천수점,서울특별시,종로구,37.5796701767124,126.982143724353,2026-04-29,2026-04-29
05206,속초영랑해안길점,강원특별자치도,속초시,38.2144866070951,128.597174572926,2026-04-29,2026-04-29
05214,중흥아너팰리스점,광주광역시,북구,35.158110008601,126.911781223559,2026-04-29,2026-04-29
05216,당진IC점,충청남도,당진시,36.9048143650686,126.701773905168,2026-04-29,2026-04-29
05229,대전청사점,대전광역시,서구,36.3595087497148,127.389834474705,2026-04-29,2026-04-29
05238,안양원평점,경기도,안양시,37.4031440682339,126.920168322432,2026-04-29,2026-04-29
05240,창원소계점,경상남도,창원시,35.2578718709128,128.601458712806,2026-04-29,2026-04-29
05244,천안구성타운점,충청남도,천안시,36.7920279554539,127.171600573073,2026-04-29,2026-04-29
05267,공항주유소점,서울특별시,강서구,37.5743411065587,126.802289394945,2026-04-29,2026-04-29
05268,광천대로점,충청남도,홍성군,36.5361057475686,126.631278147769,2026-04-29,2026-04-29
05282,영통점,경기도,수원시,37.2559361671782,127.074734153872,2026-04-29,2026-04-29
05283,시흥은행점,경기도,시흥시,37.4315814627633,126.794769540122,2026-04-29,2026-04-29
05291,화양가중점,서울특별시,광진구,37.5458488146879,127.067992959888,2026-04-29,2026-04-29
05320,송도아트윈점,인천광역시,연수구,37.3931337860389,126.632866511494,2026-04-29,2026-04-29
05321,송도라이크홈점,인천광역시,연수구,37.3672620452643,126.653550467903,2026-04-29,2026-04-29
05324,포천만세교리점,경기도,포천시,37.9500893453485,127.238910886216,2026-04-29,2026-04-29
05326,춘천더퍼스트점,강원특별자치도,춘천시,37.8510160766215,127.745260385714,2026-04-29,2026-04-29
05329,안산한양점,경기도,안산시,37.2934378469975,126.860556188114,2026-04-29,2026-04-29
05346,청계천점,서울특별시,종로구,37.5693392529284,126.981377714314,2026-04-29,2026-04-29
05349,독립문e편한점,서울특별시,서대문구,37.5707817762627,126.959798130106,2026-04-29,2026-04-29
05355,봉덕하우젠트점,대구광역시,남구,35.8476442269173,128.598741576736,2026-04-29,2026-04-29
05366,부평역링컨점,인천광역시,부평구,37.4905568120775,126.728251965472,2026-04-29,2026-04-29
05379,송도로터리점,인천광역시,연수구,37.4173295072101,126.651357999257,2026-04-29,2026-04-29
05386,화정달빛점,경기도,고양시,37.6464730796364,126.834712144944,2026-04-29,2026-04-29
05388,목포비파점,전라남도,목포시,34.8075989524943,126.42084054813,2026-04-29,2026-04-29
05395,마산365병원점,경상남도,창원시,35.233757701842,128.579481905397,2026-04-29,2026-04-29
05420,옥천상계점,충청북도,옥천군,36.3161903951652,127.583731630196,2026-04-29,2026-04-29
05422,홍성의료원점,충청남도,홍성군,36.5984448089378,126.673908573961,2026-04-29,2026-04-29
05425,장유두산위브점,경상남도,김해시,35.2069223701528,128.804680163888,2026-04-29,2026-04-29
05431,용원제일점,경상남도,창원시,35.100936131917,128.816495704645,2026-04-29,2026-04-29
05444,종로당주점,서울특별시,종로구,37.5711948777558,126.974726578327,2026-04-29,2026-04-29
05446,서울숲뚝섬점,서울특별시,성동구,37.5483678238652,127.047335484326,2026-04-29,2026-04-29
05450,영종리치아노점,인천광역시,중구,37.4937056192126,126.498497518386,2026-04-29,2026-04-29
05458,김포전류리점,경기도,김포시,37.7060794747465,126.65396699595,2026-04-29,2026-04-29
05461,청주테라스퀘어점,충청북도,청주시,36.6424521877916,127.425915551562,2026-04-29,2026-04-29
05466,아산온천해수점,충청남도,아산시,36.7818121978993,127.005925366862,2026-04-29,2026-04-29
05474,울산중산일동점,울산광역시,북구,35.6523052297139,129.354156205807,2026-04-29,2026-04-29
05477,남구주안본점,인천광역시,미추홀구,37.4608523035082,126.677899409354,2026-04-29,2026-04-29
05480,대전변동행복점,대전광역시,서구,36.3236339302925,127.376707706006,2026-04-29,2026-04-29
05486,파주낙하리점,경기도,파주시,37.8340270629071,126.744041354567,2026-04-29,2026-04-29
05506,센텀프리미어호텔점,부산광역시,해운대구,35.1669244792266,129.13158496276,2026-04-29,2026-04-29
05512,가산비즈점,서울특별시,금천구,37.4782149438045,126.889440092895,2026-04-29,2026-04-29
05516,대전타운누리점,대전광역시,서구,36.3397645595423,127.392996170984,2026-04-29,2026-04-29
05518,인천터미널역점,인천광역시,미추홀구,37.4419049500121,126.699690868667,2026-04-29,2026-04-29
05539,가평가화로점,경기도,가평군,37.8387277086269,127.507400375862,2026-04-29,2026-04-29
05563,상주복룡점,경상북도,상주시,36.4192625319893,128.171826305878,2026-04-29,2026-04-29
05591,불광천점,서울특별시,서대문구,37.5820965316948,126.909126213638,2026-04-29,2026-04-29
05625,동대문점,서울특별시,중구,37.5691968862634,127.009680704081,2026-04-29,2026-04-29
05631,아산권곡점,충청남도,아산시,36.7892452396892,127.009796571325,2026-04-29,2026-04-29
05652,대덕구청점,대전광역시,대덕구,36.3461625460611,127.416438935447,2026-04-29,2026-04-29
05653,오산시티자이점,경기도,오산시,37.1509103578255,127.090742705041,2026-04-29,2026-04-29
05661,마산대학교점,경상남도,창원시,35.25987312943,128.503693849165,2026-04-29,2026-04-29
05662,마산대학교기숙사점,경상남도,창원시,35.25987312943,128.503693849165,2026-04-29,2026-04-29
05663,마산대학교청강기념관점,경상남도,창원시,35.25987312943,128.503693849165,2026-04-29,2026-04-29
05667,마산제일고등학교점,경상남도,창원시,35.2617842731966,128.505456829439,2026-04-29,2026-04-29
05670,부산대저점,부산광역시,강서구,35.1731615321252,128.951334069747,2026-04-29,2026-04-29
05674,역삼초교점,서울특별시,강남구,37.4927670391321,127.034246906018,2026-04-29,2026-04-29
05677,강릉일송점,강원특별자치도,강릉시,37.7717917611129,128.914398832207,2026-04-29,2026-04-29
05683,서산지곡점,충청남도,서산시,36.8773289212851,126.439503708121,2026-04-29,2026-04-29
05695,부평시장길점,인천광역시,부평구,37.4972175745693,126.728721221352,2026-04-29,2026-04-29
05701,영산수련원점,경기도,파주시,37.7774053179134,126.836000105251,2026-04-29,2026-04-29
05711,개포래미안점,서울특별시,강남구,37.480057578933,127.064153382762,2026-04-29,2026-04-29
05712,광주중앙로점,경기도,광주시,37.4078048456876,127.259489650711,2026-04-29,2026-04-29
05723,남대전IC점,대전광역시,동구,36.2721015909557,127.472023475895,2026-04-29,2026-04-29
05747,청주쁘띠칸타빌점,충청북도,청주시,36.6330546271145,127.49143900754,2026-04-29,2026-04-29
05765,을지로부영점,서울특별시,중구,37.5664884462972,126.981025044659,2026-04-29,2026-04-29
05766,수유사랑점,서울특별시,강북구,37.6408329262394,127.027296787593,2026-04-29,2026-04-29
05767,덕평휴게소점,경기도,이천시,37.2413744206469,127.393784579939,2026-04-29,2026-04-29
05773,시흥오복점,경기도,시흥시,37.3390690960268,126.75364255913,2026-04-29,2026-04-29
05800,목포마실점,전라남도,목포시,34.8017680140748,126.395541450554,2026-04-29,2026-04-29
05807,구미원평센터점,경상북도,구미시,36.1310284216899,128.332695829912,2026-04-29,2026-04-29
05839,김천부곡한남점,경상북도,김천시,36.1236336429838,128.103136237221,2026-04-29,2026-04-29
05846,상암자인채점,서울특별시,마포구,37.5654314241142,126.904395377457,2026-04-29,2026-04-29
05849,시흥과림점,경기도,시흥시,37.4245136385099,126.836358291353,2026-04-29,2026-04-29
05850,삼척중앙시장점,강원특별자치도,삼척시,37.4406609373561,129.166061615311,2026-04-29,2026-04-29
05851,면목사랑점,서울특별시,중랑구,37.5839059506219,127.089992445074,2026-04-29,2026-04-29
05855,S경대병원역점,대구광역시,중구,35.8632004713941,128.602801032774,2026-04-29,2026-04-29
05880,부산신항점,부산광역시,강서구,35.0666934317369,128.832505677551,2026-04-29,2026-04-29
05901,안산와동개미점,경기도,안산시,37.3358868101111,126.817276830136,2026-04-29,2026-04-29
05904,구로MS점,서울특별시,구로구,37.4815104928096,126.899129034352,2026-04-29,2026-04-29
05906,개봉크로바점,서울특별시,구로구,37.493727794279,126.851492090967,2026-04-29,2026-04-29
05907,시흥스틸랜드점,경기도,시흥시,37.3451349895581,126.700735199234,2026-04-29,2026-04-29
05921,여주아울렛점,경기도,여주시,37.2380066533883,127.607850674751,2026-04-29,2026-04-29
05925,광안리굿-7점,부산광역시,수영구,35.1552809499807,129.11767382144,2026-04-29,2026-04-29
05938,서교초점,서울특별시,마포구,37.5549974482042,126.925992656128,2026-04-29,2026-04-29
05957,대전판암주공점,대전광역시,동구,36.324283820924,127.45825285256,2026-04-29,2026-04-29
05963,포천양문점,경기도,포천시,38.0005823017336,127.242831782082,2026-04-29,2026-04-29
05969,유명산점,경기도,가평군,37.5993894238857,127.492750127087,2026-04-29,2026-04-29
05975,해동용궁사점,부산광역시,기장군,35.1892606287021,129.221148463479,2026-04-29,2026-04-29
05990,대전삼익소월점,대전광역시,대덕구,36.3693338732959,127.433932045871,2026-04-29,2026-04-29
06014,R성수역점,서울특별시,성동구,37.5451422412538,127.057127702049,2026-04-29,2026-04-29
06022,R단양늘푸른점,충청북도,단양군,36.9816587235422,128.369206576445,2026-04-29,2026-04-29
06024,대전판암센터점,대전광역시,동구,36.3164304254181,127.463209832297,2026-04-29,2026-04-29
06029,목포와츠점,전라남도,목포시,34.8057075375432,126.456925045206,2026-04-29,2026-04-29
06035,청라수변공원점,인천광역시,서구,37.5326679705796,126.65118147569,2026-04-29,2026-04-29
06042,응암대림점,서울특별시,은평구,37.5887297862867,126.918194274697,2026-04-29,2026-04-29
06046,하남광암점,경기도,하남시,37.5283997343009,127.173144330964,2026-04-29,2026-04-29
06047,공주차에너지점,충청남도,공주시,36.4794221493742,127.167353199653,2026-04-29,2026-04-29
06058,고성월평태광점,경상남도,고성군,34.9461524320197,128.344910434278,2026-04-29,2026-04-29
06071,오이도뉴플러스점,경기도,시흥시,37.3449031992233,126.689975394745,2026-04-29,2026-04-29
06081,아산선장파크점,충청남도,아산시,36.7892159505384,126.906533266088,2026-04-29,2026-04-29
06124,천안성남점,충청남도,천안시,36.7515336493294,127.265811567242,2026-04-29,2026-04-29
06125,SSG보정센터점,경기도,용인시,37.3061292182982,127.105170952088,2026-04-29,2026-04-29
06132,천안구성점,충청남도,천안시,36.7938502957311,127.160550145845,2026-04-29,2026-04-29
06182,수원스타소망점,경기도,수원시,37.2741378635442,126.95143244329,2026-04-29,2026-04-29
06183,성서호림점,대구광역시,달서구,35.8393808043659,128.488288653492,2026-04-29,2026-04-29
06193,수원인계뉴코아점,경기도,수원시,37.2658831165997,127.033938258196,2026-04-29,2026-04-29
06223,아산염치삼구점,충청남도,아산시,36.8295068459423,126.967256367431,2026-04-29,2026-04-29
06230,부천고강사거리점,경기도,부천시,37.5268827132122,126.815832728964,2026-04-29,2026-04-29
06246,경희대원룸점,서울특별시,동대문구,37.5982490426337,127.054478535245,2026-04-29,2026-04-29
06248,R인천검단우방점,인천광역시,서구,37.6039056942514,126.654931295595,2026-04-29,2026-04-29
06256,포천힐스점,경기도,포천시,37.8864110372964,127.230710721133,2026-04-29,2026-04-29
06269,수원망포원룸점,경기도,수원시,37.243227193392,127.059141290997,2026-04-29,2026-04-29
06270,홍대서교점,서울특별시,마포구,37.5557991886266,126.927644767585,2026-04-29,2026-04-29
06277,여수흥국점,전라남도,여수시,34.7619595710254,127.669601060903,2026-04-29,2026-04-29
06283,강화양도점,인천광역시,강화군,37.6610191344701,126.422002113231,2026-04-29,2026-04-29
06290,원주치악점,강원특별자치도,원주시,37.4364942423982,128.057749097065,2026-04-29,2026-04-29
06296,두산모트롤점,경상남도,창원시,,,2026-04-29,2026-04-29
06297,서구원창본점,인천광역시,서구,37.5090626320326,126.626947914914,2026-04-29,2026-04-29
06305,분당미켈란점,경기도,성남시,37.3587352007253,127.107488086879,2026-04-29,2026-04-29
06310,대전그린타운점,대전광역시,대덕구,36.3659247178858,127.435796428749,2026-04-29,2026-04-29
06312,뉴동해호텔점,강원특별자치도,동해시,37.5263012040935,129.103059088389,2026-04-29,2026-04-29
06314,양주한승점,경기도,양주시,37.8105816945781,126.980171114072,2026-04-29,2026-04-29
06323,거제장평아내점,경상남도,거제시,34.8867598413786,128.604897737299,2026-04-29,2026-04-29
06325,청주용암점,충청북도,청주시,36.6094003417188,127.509331512625,2026-04-29,2026-04-29
06343,천안FM점,충청남도,천안시,36.8326834315997,127.139259366112,2026-04-29,2026-04-29
06373,금천대성점,서울특별시,금천구,37.4502612359682,126.908033506596,2026-04-29,2026-04-29
06377,경주문무왕릉점,경상북도,경주시,35.7404539342446,129.482968841802,2026-04-29,2026-04-29
06388,대전KT연수관1호점,대전광역시,서구,36.3365369093053,127.375246540594,2026-04-29,2026-04-29
06409,당진한진점,충청남도,당진시,36.9640639114518,126.767206748149,2026-04-29,2026-04-29
06418,북부면허시험장점,부산광역시,사상구,35.1778188446139,128.982878714309,2026-04-29,2026-04-29
06424,부평현대점,인천광역시,부평구,37.4873123988117,126.705909187936,2026-04-29,2026-04-29
06435,R강화동문점,인천광역시,강화군,37.7507252505773,126.492374526498,2026-04-29,2026-04-29
06439,세종소정점,세종특별자치시,소정면,36.698994633333,127.151326734879,2026-04-29,2026-04-29
06446,용인한국민속촌2호점,경기도,용인시,37.2572097214287,127.114695965037,2026-04-29,2026-04-29
06460,광주동천마을점,광주광역시,서구,35.1697063072258,126.860678547028,2026-04-29,2026-04-29
06462,태안발전본부1호점,충청남도,태안군,36.8984994826922,126.226416161906,2026-04-29,2026-04-29
06463,태안발전본부2호점,충청남도,태안군,36.8984994826922,126.226416161906,2026-04-29,2026-04-29
06474,R신월올림푸스점,서울특별시,양천구,37.5352075686996,126.824999552695,2026-04-29,2026-04-29
06480,논현유승점,인천광역시,남동구,37.3846428811285,126.718000590671,2026-04-29,2026-04-29
06491,동성로중앙점,대구광역시,중구,35.8688784738101,128.596176865058,2026-04-29,2026-04-29
06494,원앙부부율전점,경기도,수원시,37.2986929221648,126.967633700853,2026-04-29,2026-04-29
06503,씨크루즈호텔속초점,강원특별자치도,속초시,38.2013223348445,128.587056366261,2026-04-29,2026-04-29
06504,천안성환중앙점,충청남도,천안시,36.9163689616417,127.129427320566,2026-04-29,2026-04-29
06508,R테크노미라주점,대구광역시,달성군,35.6923105680537,128.450090457255,2026-04-29,2026-04-29
06518,외대앞역점,서울특별시,동대문구,37.595555750949,127.061888420306,2026-04-29,2026-04-29
06519,거제고현점,경상남도,거제시,34.8883002649172,128.622616681655,2026-04-29,2026-04-29
06525,거제장평골드점,경상남도,거제시,34.8925024966495,128.615557568066,2026-04-29,2026-04-29
06545,월성래미안점,대구광역시,달서구,35.8201084576636,128.527204159593,2026-04-29,2026-04-29
06549,한국식품연구원점,전북특별자치도,완주군,35.834230715359,127.05009451429,2026-04-29,2026-04-29
06553,화성북양점,경기도,화성시,37.2117021730929,126.854363432187,2026-04-29,2026-04-29
06594,시흥중앙점,경기도,시흥시,37.3442916702509,126.74720989425,2026-04-29,2026-04-29
06595,시흥큰솔로점,경기도,시흥시,37.3386521597104,126.751903256335,2026-04-29,2026-04-29
06607,목동5단지점,서울특별시,양천구,37.5351566093996,126.881874415824,2026-04-29,2026-04-29
06608,안산신길점,경기도,안산시,37.3376331494033,126.759788073424,2026-04-29,2026-04-29
06611,양주덕정점,경기도,양주시,37.8375740256854,127.064351675457,2026-04-29,2026-04-29
06615,울산두현삼거리점,울산광역시,울주군,35.5264018957923,129.260502466371,2026-04-29,2026-04-29
06619,대구하빈점,대구광역시,달성군,35.8792038407344,128.401341727279,2026-04-29,2026-04-29
06620,아산모종푸르지오점,충청남도,아산시,36.7827619312384,127.019703294908,2026-04-29,2026-04-29
06629,도화장고개점,인천광역시,미추홀구,37.4701467914954,126.669629465797,2026-04-29,2026-04-29
06635,강남개포점,서울특별시,강남구,37.4854108088377,127.054704829281,2026-04-29,2026-04-29
06636,성동송정점,서울특별시,성동구,37.5486379365678,127.06562155897,2026-04-29,2026-04-29
06645,목포항동시장점,전라남도,목포시,34.7857089568668,126.386576647623,2026-04-29,2026-04-29
06656,R상주삼백로점,경상북도,상주시,36.4186416783743,128.155124526329,2026-04-29,2026-04-29
06659,상인월곡로점,대구광역시,달서구,35.8104456157389,128.546820430302,2026-04-29,2026-04-29
06662,구미산동점,경상북도,구미시,36.1649363171043,128.442315258258,2026-04-29,2026-04-29
06681,역곡대주점,경기도,부천시,37.4897006867695,126.815981269313,2026-04-29,2026-04-29
06682,마석우리점,경기도,남양주시,37.6582185284282,127.301041375393,2026-04-29,2026-04-29
06685,제물포역점,인천광역시,미추홀구,37.4672675264722,126.656079284465,2026-04-29,2026-04-29
06690,청량리타운점,서울특별시,동대문구,37.5796566093672,127.045088482126,2026-04-29,2026-04-29
06720,R수원팔달문로점,경기도,수원시,37.2827331803482,127.031419126724,2026-04-29,2026-04-29
06724,대연sk뷰힐스후문점,부산광역시,남구,35.13824171926,129.093430256325,2026-04-29,2026-04-29
06739,일산강선점,경기도,고양시,37.66537027915241,126.76419053178577,2026-04-29,2026-04-29
06743,파주스머프리빙점,경기도,파주시,37.9419260447927,126.877718628669,2026-04-29,2026-04-29
06747,진주인사원룸점,경상남도,진주시,35.1906513694407,128.075363349018,2026-04-29,2026-04-29
06749,진주봉곡사거리점,경상남도,진주시,35.1926167120408,128.073060944062,2026-04-29,2026-04-29
06755,대전갈마역점,대전광역시,서구,36.3574162494344,127.371583745058,2026-04-29,2026-04-29
06772,구미봉곡제일점,경상북도,구미시,36.1500624806322,128.308828254862,2026-04-29,2026-04-29
06821,R구로신성점,서울특별시,구로구,37.4797916432559,126.896735622301,2026-04-29,2026-04-29
06822,서산IC점,충청남도,서산시,36.8120777715541,126.565888519112,2026-04-29,2026-04-29
06824,남악원룸점,전라남도,무안군,34.8107452248484,126.473383059174,2026-04-29,2026-04-29
06834,수원행궁점,경기도,수원시,37.2788341281563,127.015383221127,2026-04-29,2026-04-29
06836,예산예당산단점,충청남도,예산군,36.7668283003282,126.721736990188,2026-04-29,2026-04-29
06858,세종장군점,세종특별자치시,장군면,36.4932157104201,127.215509266144,2026-04-29,2026-04-29
06859,일산에이스점,경기도,고양시,37.6885484425696,126.776110318731,2026-04-29,2026-04-29
06865,수원매교점,경기도,수원시,37.2698498779985,127.015185555983,2026-04-29,2026-04-29
06871,청주서촌점,충청북도,청주시,36.6417409166983,127.395357740008,2026-04-29,2026-04-29
06876,동두천신창비바점,경기도,동두천시,37.9263086836218,127.05280795147,2026-04-29,2026-04-29
06877,서초점,서울특별시,서초구,37.4817261541319,127.011615884433,2026-04-29,2026-04-29
06880,중산아이파크점,경기도,고양시,37.6799891198207,126.785785651005,2026-04-29,2026-04-29
06883,신현랜드마크점,인천광역시,서구,37.5216791482893,126.672750899506,2026-04-29,2026-04-29
06898,마산아이파크점,경상남도,창원시,35.1961932910415,128.573419031417,2026-04-29,2026-04-29
06904,일산원마운트점,경기도,고양시,37.6645540981816,126.754526582068,2026-04-29,2026-04-29
06905,당진문예의전당점,충청남도,당진시,36.8912003358881,126.638086022197,2026-04-29,2026-04-29
06910,평택청북점,경기도,평택시,37.0173343509698,126.916934286096,2026-04-29,2026-04-29
06914,파주성원포레점,경기도,파주시,37.7729397693796,126.748458084824,2026-04-29,2026-04-29
06916,전주문학로점,전북특별자치도,전주시,35.826701304,127.102831261657,2026-04-29,2026-04-29
06926,동탄장지점,경기도,화성시,37.1586911834485,127.10451840943,2026-04-29,2026-04-29
06931,우정조암점,경기도,화성시,37.0848207548313,126.819582325807,2026-04-29,2026-04-29
06934,풍덕보은점,경기도,용인시,37.3242782547876,127.101186752547,2026-04-29,2026-04-29
06935,석모도점,인천광역시,강화군,37.6855835348487,126.317942818595,2026-04-29,2026-04-29
06939,인천정비단지점,인천광역시,미추홀구,37.441308526081,126.634743934944,2026-04-29,2026-04-29
06955,원주흥양로점,강원특별자치도,원주시,37.3830585057413,127.954281478397,2026-04-29,2026-04-29
06956,유성구암점,대전광역시,유성구,36.3520943190709,127.333992877042,2026-04-29,2026-04-29
06968,대전유천큰솔점,대전광역시,중구,36.3140611798182,127.38946487806,2026-04-29,2026-04-29
06981,명지국제공원점,부산광역시,강서구,35.0961206319238,128.924243543204,2026-04-29,2026-04-29
06983,검단왕길점,인천광역시,서구,37.6016352821291,126.655758489246,2026-04-29,2026-04-29
06985,청라국제도시점,인천광역시,서구,37.5336604838556,126.647441200644,2026-04-29,2026-04-29
06990,음성대소중앙점,충청북도,음성군,36.9662900408043,127.490678990252,2026-04-29,2026-04-29
06998,장안빌리지점,서울특별시,동대문구,37.571742008574,127.073001165931,2026-04-29,2026-04-29
07001,중랑장미공원점,서울특별시,중랑구,37.6136875288246,127.074253822033,2026-04-29,2026-04-29
07004,R상지BLOSSOM점,강원특별자치도,원주시,37.3681618473917,127.934766440007,2026-04-29,2026-04-29
07006,인천연수점,인천광역시,연수구,37.4227456660771,126.674221294588,2026-04-29,2026-04-29
07009,청주스마일점,충청북도,청주시,36.6355523514994,127.459682057944,2026-04-29,2026-04-29
07014,원주흥업두산점,강원특별자치도,원주시,37.2909148705023,127.917030037591,2026-04-29,2026-04-29
07023,전대후문점,광주광역시,북구,35.1748675932846,126.914139033241,2026-04-29,2026-04-29
07026,거제옥포덕산점,경상남도,거제시,34.8993489254498,128.685431060882,2026-04-29,2026-04-29
07029,광주극락점,광주광역시,서구,35.1675390859427,126.837457569455,2026-04-29,2026-04-29
07036,대치SK점,서울특별시,강남구,37.49629417224,127.060603087334,2026-04-29,2026-04-29
07040,사파법원점,경상남도,창원시,35.2216198885697,128.701373678471,2026-04-29,2026-04-29
07050,명지에코팰리스점,부산광역시,강서구,35.092845536726,128.90885863975,2026-04-29,2026-04-29
07065,중랑동일점,서울특별시,중랑구,37.6084250605412,127.079334014547,2026-04-29,2026-04-29
07081,운정유미어스점,경기도,파주시,37.7078290447174,126.759516147175,2026-04-29,2026-04-29
07082,감신대점,서울특별시,서대문구,37.5679167646618,126.961892367623,2026-04-29,2026-04-29
07083,독립기념관2호점,충청남도,천안시,36.7818719998049,127.230398111736,2026-04-29,2026-04-29
07084,대전선화아트점,대전광역시,중구,36.3339824781791,127.422793819547,2026-04-29,2026-04-29
07088,김포센터2호점,경기도,김포시,37.6002039135595,126.784251339358,2026-04-29,2026-04-29
07092,문정래미안점,서울특별시,송파구,37.4892043157404,127.130231968818,2026-04-29,2026-04-29
07096,신월으뜸점,서울특별시,양천구,37.5206086540918,126.84139632205,2026-04-29,2026-04-29
07099,HJ매그놀리아국제병원점,경기도,가평군,37.6911384328939,127.52137539485,2026-04-29,2026-04-29
07103,위례창곡점,경기도,성남시,37.4696160083946,127.148290516909,2026-04-29,2026-04-29
07104,응암초교점,서울특별시,은평구,37.5876957477095,126.921693064684,2026-04-29,2026-04-29
07105,상주무양점,경상북도,상주시,36.4180814988596,128.153255615027,2026-04-29,2026-04-29
07111,고한중앙점,강원특별자치도,정선군,37.1955890738473,128.862086509105,2026-04-29,2026-04-29
07112,R강릉월화거리점,강원특별자치도,강릉시,37.7538842643869,128.900051930803,2026-04-29,2026-04-29
07115,분당올림픽점,경기도,성남시,37.3808695570164,127.128664066262,2026-04-29,2026-04-29
07136,목포영흥점,전라남도,목포시,34.8047211376122,126.418492970146,2026-04-29,2026-04-29
07139,구수산도서관점,대구광역시,북구,35.9384128369496,128.553015014227,2026-04-29,2026-04-29
07145,연대제중학사점,서울특별시,서대문구,37.5638064365127,126.942930940634,2026-04-29,2026-04-29
07146,일산베스트점,울산광역시,동구,35.4978818155771,129.425154746487,2026-04-29,2026-04-29
07148,화성시청점,경기도,화성시,37.2005146715864,126.826489567198,2026-04-29,2026-04-29
07171,천안성거장미점,충청남도,천안시,36.8727193583548,127.200818708593,2026-04-29,2026-04-29
07173,광주고룡점,광주광역시,광산구,35.2094982722468,126.780882896537,2026-04-29,2026-04-29
07174,발산현대점,서울특별시,강서구,37.5470660846138,126.824285628464,2026-04-29,2026-04-29
07193,진천덕산점,충청북도,진천군,36.9092377827242,127.508262066588,2026-04-29,2026-04-29
07202,사상괘법점,부산광역시,사상구,35.1635162634752,128.985526283344,2026-04-29,2026-04-29
07204,군산문화점,전북특별자치도,군산시,35.9767088826819,126.703991841535,2026-04-29,2026-04-29
07214,김포마송원룸점,경기도,김포시,37.6837856249216,126.601687230084,2026-04-29,2026-04-29
07216,포항문덕점,경상북도,포항시,35.9608091277722,129.403226904402,2026-04-29,2026-04-29
07224,옥천이원점,충청북도,옥천군,36.2475973233499,127.621283648485,2026-04-29,2026-04-29
07225,조선대자연대점,광주광역시,동구,35.1392979045024,126.928194227806,2026-04-29,2026-04-29
07229,고려대역점,서울특별시,동대문구,37.5893530779058,127.036836629158,2026-04-29,2026-04-29
07232,천안성성센터점,충청남도,천안시,36.8403849518376,127.129751756371,2026-04-29,2026-04-29
07238,대전KT연수관2호점,대전광역시,서구,36.3365369093053,127.375246540594,2026-04-29,2026-04-29
07250,파주번영로점,경기도,파주시,37.7579021048763,126.766746286176,2026-04-29,2026-04-29
07252,포천청성점,경기도,포천시,37.872116314144,127.223396824323,2026-04-29,2026-04-29
07257,경대원룸점,대구광역시,북구,35.8918648182007,128.616885448306,2026-04-29,2026-04-29
07267,청평휴게소점,경기도,가평군,37.7183410315351,127.402011007447,2026-04-29,2026-04-29
07284,포항청림점,경상북도,포항시,35.9968646858962,129.407608208697,2026-04-29,2026-04-29
07290,경기광주역점,경기도,광주시,37.3996795846013,127.253535302914,2026-04-29,2026-04-29
07294,행촌독립문점,서울특별시,종로구,37.5745501111215,126.961736730684,2026-04-29,2026-04-29
07307,영종덕교중앙점,인천광역시,중구,37.4269811076602,126.420631305628,2026-04-29,2026-04-29
07310,용현중앙점,인천광역시,미추홀구,37.4516133530579,126.66196101989,2026-04-29,2026-04-29
07312,강대정문점,강원특별자치도,춘천시,37.8649589721283,127.735204425325,2026-04-29,2026-04-29
07323,아산번영점,충청남도,아산시,36.7832992282336,127.014294510922,2026-04-29,2026-04-29
07327,상무리채점,광주광역시,서구,35.1548721043761,126.85090346902,2026-04-29,2026-04-29
07341,하계타운점,서울특별시,노원구,37.6335243357355,127.0709579628,2026-04-29,2026-04-29
07342,대전둔산시티점,대전광역시,서구,36.3497091150598,127.38789533605,2026-04-29,2026-04-29
07345,광주만호점,광주광역시,서구,35.1322617001155,126.851390597887,2026-04-29,2026-04-29
07355,화성푸른들판점,경기도,화성시,37.1948090064184,126.882430511905,2026-04-29,2026-04-29
07365,양평국수리점,경기도,양평군,37.5117437173027,127.400836734246,2026-04-29,2026-04-29
07368,홍성구항로드점,충청남도,홍성군,36.5614348868615,126.647978826918,2026-04-29,2026-04-29
07381,아산도고점,충청남도,아산시,36.7472763660906,126.873516741243,2026-04-29,2026-04-29
07386,전곡터미널점,경기도,연천군,38.0252765772396,127.068006524884,2026-04-29,2026-04-29
07388,한국기술교육대학교점,충청남도,천안시,36.7637362765614,127.284899978579,2026-04-29,2026-04-29
07406,마산진동중앙점,경상남도,창원시,35.1166723831582,128.488721781929,2026-04-29,2026-04-29
07415,수원마이홈점,경기도,수원시,37.2597596255603,127.032024408257,2026-04-29,2026-04-29
07417,아산탕정스타점,충청남도,아산시,36.7964634910297,127.085599990921,2026-04-29,2026-04-29
07427,목포항구점,전라남도,목포시,34.7820087952301,126.381443410703,2026-04-29,2026-04-29
07437,경주성건점,경상북도,경주시,35.8528743247638,129.212618266497,2026-04-29,2026-04-29
07438,경주황오점,경상북도,경주시,35.841817375293,129.214811754386,2026-04-29,2026-04-29
07445,용현우성점,인천광역시,미추홀구,37.4508709241161,126.640586995903,2026-04-29,2026-04-29
07448,순천산단점,전라남도,순천시,34.9879240428213,127.508511242023,2026-04-29,2026-04-29
07468,대구평리점,대구광역시,서구,35.8757925912627,128.557861791205,2026-04-29,2026-04-29
07495,시흥고합점,경기도,시흥시,37.3593547516135,126.726587152675,2026-04-29,2026-04-29
07499,황골주공점,경기도,수원시,37.2632257520558,127.078539384632,2026-04-29,2026-04-29
07511,보령동대타운점,충청남도,보령시,36.3534625542542,126.60594958515,2026-04-29,2026-04-29
07519,광주봉선SM점,광주광역시,남구,35.1261225156911,126.915247624209,2026-04-29,2026-04-29
07520,거제장승포항점,경상남도,거제시,34.8645328338132,128.7229360413,2026-04-29,2026-04-29
07528,대전만년제일점,대전광역시,서구,36.3663690045617,127.382026955653,2026-04-29,2026-04-29
07534,광주용수점,경기도,광주시,37.3836118941588,127.304996171652,2026-04-29,2026-04-29
07541,구로NHNKCP점,서울특별시,구로구,37.4809950309438,126.896530117414,2026-04-29,2026-04-29
07543,마포신수점,서울특별시,마포구,37.5491943802272,126.935170439897,2026-04-29,2026-04-29
07549,문막반계리점,강원특별자치도,원주시,37.2987317812889,127.797153227211,2026-04-29,2026-04-29
07558,화성반월점,경기도,화성시,37.2244373704013,127.063036952944,2026-04-29,2026-04-29
07572,현풍IC점,대구광역시,달성군,35.6724550783045,128.44660440537,2026-04-29,2026-04-29
07573,이천(통영방향)휴게소점,경기도,이천시,37.2645721093162,127.403653494041,2026-04-29,2026-04-29
07581,아산온천휴림점,충청남도,아산시,36.7803404803061,127.007760868961,2026-04-29,2026-04-29
07583,구리(퇴계원방향)휴게소점,경기도,구리시,37.627790761478,127.139364626978,2026-04-29,2026-04-29
07584,종로낙원점,서울특별시,종로구,37.5723947705598,126.989077088986,2026-04-29,2026-04-29
07598,동해한양점,강원특별자치도,동해시,37.5271291696649,129.106540249703,2026-04-29,2026-04-29
07608,경산중방점,경상북도,경산시,35.8254758080429,128.73537566817,2026-04-29,2026-04-29
07610,여수낭만바다점,전라남도,여수시,34.6931510743292,127.767313780057,2026-04-29,2026-04-29
07612,번동중앙점,서울특별시,강북구,37.6404352381799,127.03292005454,2026-04-29,2026-04-29
07613,예산삽교점,충청남도,예산군,36.6875970322247,126.742215765637,2026-04-29,2026-04-29
07615,영종넙디점,인천광역시,중구,37.4852515368283,126.506712897612,2026-04-29,2026-04-29
07638,포천우리병원점,경기도,포천시,37.8274854127622,127.14813856865,2026-04-29,2026-04-29
07646,안성산수화점,경기도,안성시,37.0041208900458,127.151975413879,2026-04-29,2026-04-29
07649,광진구의점,서울특별시,광진구,37.5404362861847,127.083640512156,2026-04-29,2026-04-29
07657,안산화정로점,경기도,안산시,37.3319823280654,126.822333604743,2026-04-29,2026-04-29
07668,청도IC점,경상북도,청도군,35.6542378291356,128.74959902765,2026-04-29,2026-04-29
07674,신월중앙점,서울특별시,양천구,37.5278367899901,126.835426681652,2026-04-29,2026-04-29
07676,부산좌동점,부산광역시,해운대구,35.1756250422471,129.176858428194,2026-04-29,2026-04-29
07677,광주중대로드점,경기도,광주시,37.4050460886795,127.21260767804,2026-04-29,2026-04-29
07678,용산신창점,서울특별시,용산구,37.5356375845542,126.955164094232,2026-04-29,2026-04-29
07679,내방역점,서울특별시,서초구,37.4883845515873,126.992082577884,2026-04-29,2026-04-29
07685,R수원율전중앙점,경기도,수원시,37.3031113771276,126.968457685968,2026-04-29,2026-04-29
07687,김포해병대점,경기도,김포시,37.620152942295,126.634425107365,2026-04-29,2026-04-29
07690,명지국제로점,부산광역시,강서구,35.1058021409809,128.92258153079,2026-04-29,2026-04-29
07691,목원대드림점,대전광역시,서구,36.3299677332207,127.341791867481,2026-04-29,2026-04-29
07711,장유대청점,경상남도,김해시,35.1932633452362,128.798754507963,2026-04-29,2026-04-29
07736,대구옥포점,대구광역시,달성군,35.7762256575728,128.438003521605,2026-04-29,2026-04-29
07741,부천중동점,경기도,부천시,37.4975336625744,126.781396721736,2026-04-29,2026-04-29
07747,인천석남역점,인천광역시,서구,37.5060748119288,126.673107201299,2026-04-29,2026-04-29
07750,대전관저구봉점,대전광역시,서구,36.2979239674904,127.327561989183,2026-04-29,2026-04-29
07760,SBS전원마을점,경기도,파주시,37.6997422505775,126.696607654271,2026-04-29,2026-04-29
07762,사천향촌예미지점,경상남도,사천시,34.9344224248152,128.08636212475,2026-04-29,2026-04-29
07763,안동CM호텔점,경상북도,안동시,36.5756758512693,128.494880182946,2026-04-29,2026-04-29
07772,광주옥동점,광주광역시,광산구,35.1246025490332,126.760931526196,2026-04-29,2026-04-29
07779,오창공단점,충청북도,청주시,36.7142758193175,127.439845157066,2026-04-29,2026-04-29
07785,신당역점,서울특별시,중구,37.5657536581952,127.015443726545,2026-04-29,2026-04-29
07788,울산삼산점,울산광역시,남구,35.5405013777008,129.341817106762,2026-04-29,2026-04-29
07789,경주문산공단점,경상북도,경주시,35.6713084080043,129.323323826766,2026-04-29,2026-04-29
07790,경주미소지움점,경상북도,경주시,35.720857675075,129.34170736696,2026-04-29,2026-04-29
07791,북구사수점,대구광역시,북구,35.8960600522014,128.515318137601,2026-04-29,2026-04-29
07794,강남대학사점,경기도,용인시,37.2741253924992,127.132099903261,2026-04-29,2026-04-29
07795,광양태인점,전라남도,광양시,34.9429921817905,127.758129930331,2026-04-29,2026-04-29
07803,성내수자인점,서울특별시,강동구,37.5257298567481,127.12875745701,2026-04-29,2026-04-29
07810,양산금오점,경상남도,양산시,35.3110464459802,129.021676754992,2026-04-29,2026-04-29
07827,대웅제약점,서울특별시,강남구,37.5144255659793,127.06546897902,2026-04-29,2026-04-29
07829,당진합덕원룸점,충청남도,당진시,36.80752156764,126.768425950505,2026-04-29,2026-04-29
07830,시흥그린점,경기도,시흥시,37.3419668424172,126.749414124106,2026-04-29,2026-04-29
07838,마산예곡로드점,경상남도,창원시,35.1615400537214,128.553334407266,2026-04-29,2026-04-29
07842,보라매농심점,서울특별시,동작구,37.4975268706688,126.920061399249,2026-04-29,2026-04-29
07852,신갈오거리점,경기도,용인시,37.2712807218903,127.105924426515,2026-04-29,2026-04-29
07858,아산용화센터점,충청남도,아산시,36.7716479108219,127.008348833247,2026-04-29,2026-04-29
07878,대전가양로점,대전광역시,동구,36.3490534898933,127.442984473414,2026-04-29,2026-04-29
07887,대전선병원점,대전광역시,중구,36.3362110472548,127.411391422814,2026-04-29,2026-04-29
07895,self코리아CC점,경기도,용인시,37.2194071623658,127.154846656677,2026-04-29,2026-04-29
07899,대부도펜션타운점,경기도,안산시,37.2332234231473,126.624382304288,2026-04-29,2026-04-29
07903,수원천천점,경기도,수원시,37.2945913360753,126.978919124913,2026-04-29,2026-04-29
07905,마곡지웰점,서울특별시,강서구,37.5589625253663,126.829473076046,2026-04-29,2026-04-29
07920,양평백운길점,경기도,양평군,37.5038376677403,127.511365001623,2026-04-29,2026-04-29
07924,화전원룸점,부산광역시,강서구,35.1097626225797,128.882322648443,2026-04-29,2026-04-29
07929,구미무지개점,경기도,성남시,37.3393634364184,127.116444211146,2026-04-29,2026-04-29
07931,여주수목원점,경기도,여주시,37.2794739952143,127.657904751631,2026-04-29,2026-04-29
07933,평택한광점,경기도,평택시,36.9945497645994,127.098315244046,2026-04-29,2026-04-29
07935,부천연화점,경기도,부천시,37.4948214396469,126.780852223752,2026-04-29,2026-04-29
07937,김해엘리시안점,경상남도,김해시,35.2333107466906,128.847161416086,2026-04-29,2026-04-29
07942,시립대후문점,서울특별시,동대문구,37.5856873828441,127.060987403482,2026-04-29,2026-04-29
07948,한림성심대점,강원특별자치도,춘천시,37.8954007931859,127.755514061619,2026-04-29,2026-04-29
07949,울산신복환승센터점,울산광역시,남구,35.5509282674604,129.263126334516,2026-04-29,2026-04-29
07951,대전덕암점,대전광역시,대덕구,36.4347161024514,127.421257588979,2026-04-29,2026-04-29
07960,의정캐슬점,경기도,의정부시,37.7305658212627,127.036238651347,2026-04-29,2026-04-29
07974,경주외동점,경상북도,경주시,35.711966563618,129.325529227412,2026-04-29,2026-04-29
07987,수원비발디점,경기도,수원시,37.2604143104922,127.029289619856,2026-04-29,2026-04-29
07989,경주석계관문점,경상북도,경주시,35.6696172841679,129.301793503127,2026-04-29,2026-04-29
08005,제천하소주공점,충청북도,제천시,37.1448651821275,128.197734024469,2026-04-29,2026-04-29
08020,대전용문빌리지점,대전광역시,서구,36.3428104422948,127.400408060611,2026-04-29,2026-04-29
08030,이천(통영방향)휴게소소모품점,경기도,이천시,37.2645721093162,127.403653494041,2026-04-29,2026-04-29
08031,구리(퇴계원방향)휴게소소모품점,경기도,구리시,37.627790761478,127.139364626978,2026-04-29,2026-04-29
08047,사당역점,서울특별시,동작구,37.4767589123243,126.975984039586,2026-04-29,2026-04-29
08051,청주용암중앙점,충청북도,청주시,36.616954126026,127.507607944079,2026-04-29,2026-04-29
08061,부산금사역점,부산광역시,금정구,35.2157637435139,129.115667531914,2026-04-29,2026-04-29
08064,진주혁신도시점,경상남도,진주시,35.1791996328479,128.151552300769,2026-04-29,2026-04-29
08077,self위워크디자이너클럽점,서울특별시,강남구,37.5247412405926,127.040052824742,2026-04-29,2026-04-29
08078,self위워크선릉3호점,서울특별시,강남구,37.5033532547808,127.049875769645,2026-04-29,2026-04-29
08079,self위워크삼성1호점,서울특별시,강남구,37.5076652238165,127.057726163073,2026-04-29,2026-04-29
08080,self위워크삼성2호점,서울특별시,강남구,37.5075910839105,127.060579419429,2026-04-29,2026-04-29
08081,self위워크선릉1호점,서울특별시,강남구,37.5024293698973,127.043474980423,2026-04-29,2026-04-29
08082,self위워크선릉2호점,서울특별시,강남구,37.5063702427027,127.053641718718,2026-04-29,2026-04-29
08083,self위워크역삼2점,서울특별시,강남구,37.499276489658,127.035940212831,2026-04-29,2026-04-29
08084,self위워크강남2점,서울특별시,강남구,37.4992701289378,127.029280313995,2026-04-29,2026-04-29
08085,self위워크여의도점,서울특별시,영등포구,37.5233667660094,126.923451000009,2026-04-29,2026-04-29
08086,self위워크홍대점,서울특별시,마포구,37.5560489907799,126.922054171124,2026-04-29,2026-04-29
08087,self위워크을지로점,서울특별시,중구,37.5651004556362,126.986959615068,2026-04-29,2026-04-29
08088,self위워크서울스퀘어점,서울특별시,중구,37.555503632236,126.973751343837,2026-04-29,2026-04-29
08089,self위워크종로타워점,서울특별시,종로구,37.579590490291,126.986619156804,2026-04-29,2026-04-29
08093,우송대청운점,대전광역시,동구,36.3380624754112,127.447996292225,2026-04-29,2026-04-29
08099,경복대점,경기도,남양주시,37.7351068104623,127.211591808556,2026-04-29,2026-04-29
08105,원주연세점,강원특별자치도,원주시,37.2797696963666,127.911497756689,2026-04-29,2026-04-29
08108,아산테크노벨리점,충청남도,아산시,36.9232628635791,127.059354521828,2026-04-29,2026-04-29
08109,창동현대타운점,서울특별시,도봉구,37.6471181492246,127.035269588373,2026-04-29,2026-04-29
08113,고성천진해변점,강원특별자치도,고성군,38.259205896342,128.559286646925,2026-04-29,2026-04-29
08132,대전부사신일점,대전광역시,중구,36.312004891364,127.435454058427,2026-04-29,2026-04-29
08138,전주모래내점,전북특별자치도,전주시,35.83358526403,127.141060983175,2026-04-29,2026-04-29
08139,반포레드점,서울특별시,서초구,37.5060995475667,127.003407328203,2026-04-29,2026-04-29
08140,아산친오애점,충청남도,아산시,36.7831816809682,126.953698910096,2026-04-29,2026-04-29
08141,종로익선동점,서울특별시,종로구,37.5754852631434,126.98998339904,2026-04-29,2026-04-29
08142,광진코지웰점,서울특별시,광진구,37.547068014965,127.07184990385,2026-04-29,2026-04-29
08148,부평문화점,인천광역시,부평구,37.4953136096717,126.732292120956,2026-04-29,2026-04-29
08153,예산고덕봉산점,충청남도,예산군,36.7430642058068,126.698707184404,2026-04-29,2026-04-29
08154,울산머큐어호텔점,울산광역시,북구,35.6262404843194,129.441102697514,2026-04-29,2026-04-29
08159,의정부역점,경기도,의정부시,37.7353436099577,127.047105422884,2026-04-29,2026-04-29
08162,송정더솔점,광주광역시,광산구,35.1420304195466,126.794526109142,2026-04-29,2026-04-29
08164,호원우성점,경기도,의정부시,37.7239232031996,127.048585359619,2026-04-29,2026-04-29
08171,옥계(속초방향)휴게소점,강원특별자치도,강릉시,37.6161901533477,129.060222797623,2026-04-29,2026-04-29
08172,self옥계(속초방향)휴게소점,강원특별자치도,강릉시,37.6161901533477,129.060222797623,2026-04-29,2026-04-29
08173,서천(서울방향)휴게소점,충청남도,서천군,36.1318400425013,126.627995641229,2026-04-29,2026-04-29
08174,self서천(서울방향)휴게소점,충청남도,서천군,36.1318400425013,126.627995641229,2026-04-29,2026-04-29
08186,파주공방거리점,경기도,파주시,37.7070053588441,126.68655537791,2026-04-29,2026-04-29
08198,국립경국대학교예천캠퍼스점,경상북도,예천군,36.6437290113003,128.454637822423,2026-04-29,2026-04-29
08200,남촌농산물시장점,인천광역시,남동구,37.423670088506,126.720571550944,2026-04-29,2026-04-29
08210,옥계(속초방향)소모품,강원특별자치도,강릉시,37.6161901533477,129.060222797623,2026-04-29,2026-04-29
08211,옥계(속초방향)담배점,강원특별자치도,강릉시,37.6161901533477,129.060222797623,2026-04-29,2026-04-29
08212,서천(서울방향)소모품점,충청남도,서천군,36.1318400425013,126.627995641229,2026-04-29,2026-04-29
08213,서천(서울방향)담배점,충청남도,서천군,36.1318400425013,126.627995641229,2026-04-29,2026-04-29
08215,음성금왕대로점,충청북도,음성군,36.9829548466505,127.572663856373,2026-04-29,2026-04-29
08216,파주신촌점,경기도,파주시,37.7351433446571,126.712761238699,2026-04-29,2026-04-29
08220,위례역점,경기도,성남시,37.4643956367584,127.139491214202,2026-04-29,2026-04-29
08226,R광양금광점,전라남도,광양시,34.9345698996093,127.690205059952,2026-04-29,2026-04-29
08232,상계벽산점,서울특별시,노원구,37.6623030184626,127.073581746977,2026-04-29,2026-04-29
08233,대구월배역점,대구광역시,달서구,35.8161357713865,128.530782406543,2026-04-29,2026-04-29
08234,당진합덕점,충청남도,당진시,36.8091393265904,126.775951067914,2026-04-29,2026-04-29
08235,아산스페이스마리점,충청남도,아산시,36.8993340116522,127.063506237785,2026-04-29,2026-04-29
08244,오창엘파크점,충청북도,청주시,36.7120241761314,127.426854489085,2026-04-29,2026-04-29
08256,구리(퇴계원방향)담배점,경기도,구리시,37.627790761478,127.139364626978,2026-04-29,2026-04-29
08257,이천(통영방향)담배점,경기도,이천시,37.2645721093162,127.403653494041,2026-04-29,2026-04-29
08264,신성대인성관점,충청남도,당진시,36.8537094815468,126.593768678199,2026-04-29,2026-04-29
08265,과기대수림학사점,서울특별시,노원구,37.6330789279387,127.076794742851,2026-04-29,2026-04-29
08266,과기대누리학사점,서울특별시,노원구,37.6330789279387,127.076794742851,2026-04-29,2026-04-29
08268,증평IC점,충청북도,청주시,36.767139976386,127.501947753256,2026-04-29,2026-04-29
08285,김포장기호반점,경기도,김포시,37.6478019005109,126.660886635534,2026-04-29,2026-04-29
08293,아산음봉스타점,충청남도,아산시,36.8655812715167,127.030652548812,2026-04-29,2026-04-29
08294,남성중앙점,경상북도,상주시,36.412719994521,128.157283172151,2026-04-29,2026-04-29
08303,경주양남점,경상북도,경주시,35.7003497050599,129.471066290856,2026-04-29,2026-04-29
08304,이마트타운2호점,경기도,고양시,37.6615831401235,126.744065435785,2026-04-29,2026-04-29
08319,대전호동대로점,대전광역시,중구,36.30534042979,127.448535653446,2026-04-29,2026-04-29
08333,동촌강변점,대구광역시,동구,35.8846463954272,128.653458099531,2026-04-29,2026-04-29
08339,세종리베라점,세종특별자치시,한누리대로,36.4845204124295,127.258779863057,2026-04-29,2026-04-29
08341,당하스위첸점,인천광역시,서구,37.5880315433314,126.677251844705,2026-04-29,2026-04-29
08355,R오이도점,경기도,시흥시,37.3413136244956,126.688681081921,2026-04-29,2026-04-29
18128,[자판]서산잠홍,충청남도,서산시,36.788378069730,126.47877892866,2026-04-29,2026-04-29
18594,[VM]MV스파크플러스강남4호,서울특별시,서초구,37.499553596324,127.02575238887,2026-04-29,2026-04-29
18597,[VM]인천공항인재원점,인천광역시,중구,37.455177902540,126.38536971553,2026-04-29,2026-04-29
18598,[VM]MV세종물류센터점,세종특별자치시,연동면,36.547900742072,127.35126666582,2026-04-29,2026-04-29
18599,[VM]SMART인산인해점,충청북도,제천시,,,2026-04-29,2026-04-29
18614,[VM]MV인천글로벌캠퍼스점,인천광역시,연수구,37.3752056474915,126.668778101486,2026-04-29,2026-04-29
18615,[VM]MV감신대점,서울특별시,서대문구,37.5679167646618,126.961892367623,2026-04-29,2026-04-29
20009,영월주공점,강원특별자치도,영월군,37.1777139954312,128.46003966361,2026-04-29,2026-04-29
20015,오포신현타운점,경기도,광주시,37.3667154091477,127.159936836879,2026-04-29,2026-04-29
20016,은평진흥로점,서울특별시,은평구,37.6078876807536,126.928515764019,2026-04-29,2026-04-29
20022,가평삼회리점,경기도,가평군,37.6667105166263,127.381060590849,2026-04-29,2026-04-29
20027,화순전대생활관점,전라남도,화순군,35.0611780538109,127.00322012106,2026-04-29,2026-04-29
20029,초량대로점,부산광역시,동구,35.1246029450989,129.044437554914,2026-04-29,2026-04-29
20031,R신정자연점,울산광역시,남구,35.5295194538456,129.320954974346,2026-04-29,2026-04-29
20033,R관악신림현대점,서울특별시,관악구,37.474237411225,126.933711993359,2026-04-29,2026-04-29
20042,창원대동다숲점,경상남도,창원시,35.2610542268278,128.620634306596,2026-04-29,2026-04-29
20043,은평제일점,서울특별시,은평구,37.5982958936146,126.919650690112,2026-04-29,2026-04-29
20045,마산북성로점,경상남도,창원시,35.2146312330197,128.570944611482,2026-04-29,2026-04-29
20048,경북대누리관점,대구광역시,북구,35.8890974884948,128.614322336303,2026-04-29,2026-04-29
20051,포천체육공원점,경기도,포천시,37.8932674855909,127.196885617248,2026-04-29,2026-04-29
20068,대전중리파크점,대전광역시,대덕구,36.3598501931004,127.425140636176,2026-04-29,2026-04-29
20070,R서순천IC점,전라남도,순천시,34.996046530682,127.488951924467,2026-04-29,2026-04-29
20079,S대저역점,부산광역시,강서구,35.2130661412997,128.960562245274,2026-04-29,2026-04-29
20081,가평연하점,경기도,가평군,37.8024075289469,127.345214727699,2026-04-29,2026-04-29
20085,이천오늘점,경기도,이천시,37.2940888087325,127.532133743464,2026-04-29,2026-04-29
20086,강화해안로점,인천광역시,강화군,37.6173079605665,126.383271432817,2026-04-29,2026-04-29
20088,여수상암점,전라남도,여수시,34.8258016659479,127.732936601817,2026-04-29,2026-04-29
20093,유성리베라점,대전광역시,유성구,36.3537586476833,127.33836809169,2026-04-29,2026-04-29
20094,공주유구점,충청남도,공주시,36.5499306600603,126.951085709228,2026-04-29,2026-04-29
20102,시흥포동점,경기도,시흥시,37.4068597766635,126.786158308988,2026-04-29,2026-04-29
20104,대전대2생활관점,대전광역시,동구,36.336696167799,127.459001869396,2026-04-29,2026-04-29
20109,창동동아점,서울특별시,도봉구,37.6507504766757,127.049522721563,2026-04-29,2026-04-29
20114,천안안궁점,충청남도,천안시,36.956349387756,127.130178060983,2026-04-29,2026-04-29
20119,self위워크마켓신논현점,서울특별시,서초구,37.5021008334827,127.024465815419,2026-04-29,2026-04-29
20136,부산강서점,부산광역시,강서구,35.1128083615419,128.885728439735,2026-04-29,2026-04-29
20145,천안입장대로점,충청남도,천안시,36.9036784756117,127.22256098208,2026-04-29,2026-04-29
20148,평택서정점,경기도,평택시,37.0610350176369,127.053862314541,2026-04-29,2026-04-29
20150,파주스마일점,경기도,파주시,37.7925418866277,126.859995542688,2026-04-29,2026-04-29
20160,침산명성점,대구광역시,북구,35.8889874510927,128.589743746192,2026-04-29,2026-04-29
20163,경대정문원룸점,대구광역시,북구,35.8851531478108,128.61256960747,2026-04-29,2026-04-29
20166,김제위성점,전북특별자치도,김제시,35.8042139286552,126.894145490045,2026-04-29,2026-04-29
20172,용인명지대점,경기도,용인시,37.2251371902859,127.186203522423,2026-04-29,2026-04-29
20175,고령우륵점,경상북도,고령군,35.734994795426,128.270881655693,2026-04-29,2026-04-29
20189,평택팽성점,경기도,평택시,36.9666403931272,127.060568970642,2026-04-29,2026-04-29
20190,김해터미널점,경상남도,김해시,35.2293396295983,128.872242572055,2026-04-29,2026-04-29
20191,석촌호수점,서울특별시,송파구,37.5071903282914,127.105841889845,2026-04-29,2026-04-29
20195,금오공대생활관점,경상북도,구미시,36.1456315429562,128.387881880598,2026-04-29,2026-04-29
20196,파주야당점,경기도,파주시,37.71026526493,126.762803348053,2026-04-29,2026-04-29
20197,R진교터미널점,경상남도,하동군,35.0288196215528,127.903165044156,2026-04-29,2026-04-29
20201,현대문현점,울산광역시,동구,35.4867406394333,129.413225543577,2026-04-29,2026-04-29
20202,대구북구매천점,대구광역시,북구,35.9066730005117,128.543260548053,2026-04-29,2026-04-29
20207,상계7단지점,서울특별시,노원구,37.6590082921218,127.061495779214,2026-04-29,2026-04-29
20220,거잠포선착장점,인천광역시,중구,37.422874828257,126.424256698837,2026-04-29,2026-04-29
20221,강동선사점,서울특별시,강동구,37.5554356439862,127.136285907148,2026-04-29,2026-04-29
20236,순천시대골드점,전라남도,순천시,34.971799495965,127.520667600769,2026-04-29,2026-04-29
20244,동탄치동천점,경기도,화성시,37.2030708585203,127.12773251907,2026-04-29,2026-04-29
20248,수원세류타운점,경기도,수원시,37.2550185460774,127.011990618672,2026-04-29,2026-04-29
20272,영종백운로점,인천광역시,중구,37.5126638713137,126.514416141192,2026-04-29,2026-04-29
20283,수락은빛점,서울특별시,노원구,37.6824622661205,127.056770880957,2026-04-29,2026-04-29
20287,시흥정왕스피드점,경기도,시흥시,37.353014663625,126.73971812339,2026-04-29,2026-04-29
20291,R태평본점,경기도,성남시,37.439879626754,127.130328822604,2026-04-29,2026-04-29
20306,R관악청룡점,서울특별시,관악구,37.4785674033303,126.947134627511,2026-04-29,2026-04-29
20314,감악산출렁다리점,경기도,파주시,37.9386982258732,126.944832934802,2026-04-29,2026-04-29
20320,예천IC점,경상북도,예천군,36.6680309104057,128.531361800028,2026-04-29,2026-04-29
20340,오송생명로점,충청북도,청주시,36.6359841366186,127.315968741194,2026-04-29,2026-04-29
20365,아산음봉쌍암점,충청남도,아산시,36.874255782388,127.076509981211,2026-04-29,2026-04-29
20368,광주용봉학사점,광주광역시,북구,35.1785879945638,126.898581504831,2026-04-29,2026-04-29
20371,금광베네스타점,경기도,용인시,37.1997116193952,127.207849242258,2026-04-29,2026-04-29
20376,아산신창신일점,충청남도,아산시,36.7927602980704,126.953569900902,2026-04-29,2026-04-29
20380,울산석유화학공단점,울산광역시,남구,35.5016114740158,129.318825931135,2026-04-29,2026-04-29
20392,주교타운점,경기도,고양시,37.6626598123545,126.830688314105,2026-04-29,2026-04-29
20393,청라스너그점,인천광역시,서구,37.5324975901063,126.627890644028,2026-04-29,2026-04-29
20399,썬충전소점,경기도,고양시,37.6092800117989,126.860893711326,2026-04-29,2026-04-29
20402,R가산삼성점,서울특별시,금천구,37.4792053824001,126.885890979837,2026-04-29,2026-04-29
20422,R파주율곡점,경기도,파주시,37.8525245180148,126.869929898354,2026-04-29,2026-04-29
20429,R반야월역점,대구광역시,동구,35.8665686245076,128.713854700167,2026-04-29,2026-04-29
20431,센트럴시티3호점,서울특별시,서초구,37.5039351769908,127.002413006799,2026-04-29,2026-04-29
20454,군산코오롱점,전북특별자치도,군산시,35.9687012683186,126.680867225837,2026-04-29,2026-04-29
20457,대림차이나점,서울특별시,영등포구,37.4902162195102,126.898192942068,2026-04-29,2026-04-29
20462,R포천궁말점,경기도,포천시,37.8138989334347,127.187287694636,2026-04-29,2026-04-29
20475,감천용정점,부산광역시,사하구,35.0805215224757,129.011385250741,2026-04-29,2026-04-29
20487,대구산격점,대구광역시,북구,35.8971271634778,128.610584602352,2026-04-29,2026-04-29
20489,S경전철공항역점,부산광역시,강서구,35.1719068103559,128.948586846191,2026-04-29,2026-04-29
20492,동부이촌점,서울특별시,용산구,37.5209638923838,126.974643871051,2026-04-29,2026-04-29
20503,사천케이블카점,경상남도,사천시,34.9325716488429,128.052570839768,2026-04-29,2026-04-29
20517,익산마동코아루점,전북특별자치도,익산시,35.9453947401599,126.963487608014,2026-04-29,2026-04-29
20524,춘천근화점,강원특별자치도,춘천시,37.8734550096054,127.717049823328,2026-04-29,2026-04-29
20526,경북대남문점,대구광역시,북구,35.8856016448563,128.609809198655,2026-04-29,2026-04-29
20531,경주부영점,경상북도,경주시,35.6753828429449,129.332216007389,2026-04-29,2026-04-29
20533,독산정다운점,서울특별시,금천구,37.4677396181562,126.892560078342,2026-04-29,2026-04-29
20534,삼융시네마점,경기도,파주시,37.7131570773604,126.759892016322,2026-04-29,2026-04-29
20536,한빛원전본부점,전라남도,영광군,,,2026-04-29,2026-04-29
20537,한빛1발전소점,전라남도,영광군,,,2026-04-29,2026-04-29
20538,한빛2발전소점,전라남도,영광군,,,2026-04-29,2026-04-29
20539,한빛3발전소점,전라남도,영광군,,,2026-04-29,2026-04-29
20559,한빛원전사택점,전라남도,영광군,35.4028501279669,126.451840187469,2026-04-29,2026-04-29
20562,R제천명륜점,충청북도,제천시,37.1408727178624,128.212911595204,2026-04-29,2026-04-29
20563,대연원룸점,부산광역시,남구,35.1329489186884,129.090316249854,2026-04-29,2026-04-29
20584,전주완산효자점,전북특별자치도,전주시,35.8131484924591,127.102957628396,2026-04-29,2026-04-29
20586,철원요양병원점,강원특별자치도,철원군,38.2007216247454,127.220413550779,2026-04-29,2026-04-29
20589,R상무유탑호텔점,광주광역시,서구,35.1531839923064,126.851159298338,2026-04-29,2026-04-29
20592,홍제행복점,서울특별시,서대문구,37.5958201052299,126.952732420993,2026-04-29,2026-04-29
20597,파주신세계사이먼점,경기도,파주시,37.7692452785638,126.696502218145,2026-04-29,2026-04-29
20598,대구칠성점,대구광역시,북구,35.8771268144094,128.59566118174,2026-04-29,2026-04-29
20600,성북돌곶이점,서울특별시,성북구,37.6108915787201,127.056534088948,2026-04-29,2026-04-29
20601,서산호수중앙점,충청남도,서산시,36.7737523990542,126.450833299375,2026-04-29,2026-04-29
20602,시포트리조트점,경상북도,영덕군,36.5044905006197,129.446059888893,2026-04-29,2026-04-29
20605,시흥금오대박점,경기도,시흥시,37.4551916528504,126.833269379765,2026-04-29,2026-04-29
20608,평택동삭점,경기도,평택시,37.0119957085261,127.101824991271,2026-04-29,2026-04-29
20611,아산배방황제점,충청남도,아산시,36.7728612693511,127.065189599538,2026-04-29,2026-04-29
20619,R부천원종고점,경기도,부천시,37.5266812283527,126.800883244648,2026-04-29,2026-04-29
20624,대구중리대로점,대구광역시,서구,35.8685914481447,128.54365701393,2026-04-29,2026-04-29
20626,R현리삼안밸리점,경기도,가평군,37.8194995073742,127.348376053564,2026-04-29,2026-04-29
20629,R연수소망점,인천광역시,연수구,37.4259845853318,126.678615538948,2026-04-29,2026-04-29
20630,R곡반정하늘채점,경기도,수원시,37.2419410956059,127.032762397582,2026-04-29,2026-04-29
20635,R시화중앙점,경기도,시흥시,37.3463686260666,126.732658406039,2026-04-29,2026-04-29
20642,춘천양우아파트점,강원특별자치도,춘천시,37.8678674137384,127.731115772623,2026-04-29,2026-04-29
20657,용인양지점,경기도,용인시,37.2291554945933,127.290151301108,2026-04-29,2026-04-29
20659,R충북혁신밸리점,충청북도,음성군,36.9134464013316,127.542944777706,2026-04-29,2026-04-29
20661,해운대라마다점,부산광역시,해운대구,35.1633069847366,129.159614124407,2026-04-29,2026-04-29
20670,익산신동오렌지점,전북특별자치도,익산시,35.9600858298685,126.964566103389,2026-04-29,2026-04-29
20677,동전주IC점,전북특별자치도,전주시,35.8424805828931,127.175543909049,2026-04-29,2026-04-29
20680,신내우디안점,서울특별시,중랑구,37.6165592295041,127.109756130023,2026-04-29,2026-04-29
20686,은혜관점,충청남도,천안시,36.8386585729423,127.181660800223,2026-04-29,2026-04-29
20690,예산삽교산단점,충청남도,예산군,36.6768575012107,126.752245875137,2026-04-29,2026-04-29
20695,R영종더호텔점,인천광역시,중구,37.4948434191817,126.491734808586,2026-04-29,2026-04-29
20699,R거창코아루점,경상남도,거창군,35.6878516291037,127.926289175091,2026-04-29,2026-04-29
20703,복산성지점,울산광역시,중구,35.5663223404229,129.330763234047,2026-04-29,2026-04-29
20711,화정대학길점,울산광역시,동구,35.498295775124,129.419856805932,2026-04-29,2026-04-29
20713,R아산배미센트럴점,충청남도,아산시,35.6758034968372,127.926211998135,2026-04-29,2026-04-29
20718,R안성동광점,경기도,안성시,36.98068670922,127.266738865587,2026-04-29,2026-04-29
20720,대전대한방병원점,대전광역시,서구,36.3462940178575,127.379533037643,2026-04-29,2026-04-29
20723,R계양벌말점,인천광역시,계양구,37.5799736056112,126.780050758363,2026-04-29,2026-04-29
20728,계산해피점,인천광역시,계양구,37.5439283905685,126.724782049049,2026-04-29,2026-04-29
20730,대구호산점,대구광역시,달서구,35.8499669844816,128.487825122506,2026-04-29,2026-04-29
20731,주례지소나현점,부산광역시,사상구,35.1457664081917,129.01352121012,2026-04-29,2026-04-29
20739,시화중심점,경기도,시흥시,37.3444965526221,126.735580895179,2026-04-29,2026-04-29
20741,부산신라대점,부산광역시,사상구,35.1690383201888,128.989577211586,2026-04-29,2026-04-29
20743,R진주과기대점,경상남도,진주시,35.1830276257471,128.094358423229,2026-04-29,2026-04-29
20744,인천대제3기숙사점,인천광역시,연수구,37.37338259937617,126.62961772002541,2026-04-29,2026-04-29
20746,R점촌터미널점,경상북도,문경시,36.5859138190644,128.191684328115,2026-04-29,2026-04-29
20751,self가평오하브점,경기도,가평군,37.8961216256503,127.526900231373,2026-04-29,2026-04-29
20755,충북음성역점,충청북도,음성군,36.9270188067466,127.703346343796,2026-04-29,2026-04-29
20758,R순천조례주공점,전라남도,순천시,34.9521787851502,127.515150834705,2026-04-29,2026-04-29
20759,여수미평동점,전라남도,여수시,34.7676049807216,127.702653441621,2026-04-29,2026-04-29
20769,웅천디아일랜드점,전라남도,여수시,34.742773610032,127.672310638202,2026-04-29,2026-04-29
20782,파주책마을점,경기도,파주시,37.7165871650595,126.691297040516,2026-04-29,2026-04-29
20785,신세계하남점,경기도,하남시,37.5454364874338,127.223740478204,2026-04-29,2026-04-29
20825,순천공고점,전라남도,순천시,34.9554576000249,127.514840603277,2026-04-29,2026-04-29
20828,부천고강로점,경기도,부천시,37.5304196937326,126.820108356682,2026-04-29,2026-04-29
20832,안산일신건영점,경기도,안산시,37.3418078565658,126.804222232642,2026-04-29,2026-04-29
20833,태안백사장점,충청남도,태안군,36.5851739557628,126.31614362628,2026-04-29,2026-04-29
20835,내트럭하우스점,전라남도,광양시,34.8961395994037,127.637915780617,2026-04-29,2026-04-29
20836,장안쉐르빌점,서울특별시,동대문구,37.5702147932163,127.069311646966,2026-04-29,2026-04-29
20841,구미비산점,경상북도,구미시,36.1207013518272,128.382833424592,2026-04-29,2026-04-29
20845,보령동대로점,충청남도,보령시,36.3548567951513,126.616176447244,2026-04-29,2026-04-29
20846,세종홍대점,세종특별자치시,조치원읍,36.621697469683,127.290983835491,2026-04-29,2026-04-29
20848,웅상아침도시점,경상남도,양산시,35.4158854886872,129.163197187606,2026-04-29,2026-04-29
20855,구미선산중앙점,경상북도,구미시,36.2412839668254,128.301732482168,2026-04-29,2026-04-29
20857,R신대부적점,경상북도,경산시,35.8419304765509,128.762371899452,2026-04-29,2026-04-29
20862,진주상평공단점,경상남도,진주시,35.1721978251327,128.123093223671,2026-04-29,2026-04-29
20868,R영도중리점,부산광역시,영도구,35.0707979302163,129.059348564793,2026-04-29,2026-04-29
20878,여수오림점,전라남도,여수시,34.7564928654783,127.715346171598,2026-04-29,2026-04-29
20881,R부평한올점,인천광역시,부평구,37.4997587979789,126.72818661704,2026-04-29,2026-04-29
20884,동탄금곡점,경기도,화성시,37.1819568718019,127.077862701953,2026-04-29,2026-04-29
20890,청라썬앤빌점,인천광역시,서구,37.5332793043315,126.629068046898,2026-04-29,2026-04-29
20893,당산국회대로점,서울특별시,영등포구,37.5254538386922,126.89867225219,2026-04-29,2026-04-29
20895,상주신봉점,경상북도,상주시,36.4076842707813,128.159838379363,2026-04-29,2026-04-29
20901,R오페라클래시아점,대구광역시,북구,35.8790937110149,128.594754032601,2026-04-29,2026-04-29
20905,R뉴통영중앙점,경상남도,통영시,34.8448596570051,128.424129720711,2026-04-29,2026-04-29
20910,장경리해수욕장점,인천광역시,옹진군,37.2716672661365,126.449408521927,2026-04-29,2026-04-29
20911,구미인동점,경상북도,구미시,36.104476085176,128.417935048613,2026-04-29,2026-04-29
20913,첨단메디케어점,광주광역시,광산구,35.2136422667519,126.850841892567,2026-04-29,2026-04-29
20926,마곡퀸즈점,서울특별시,강서구,37.5593135416408,126.83523920295,2026-04-29,2026-04-29
20927,광주월계점,광주광역시,광산구,35.2132702069943,126.840599169329,2026-04-29,2026-04-29
20929,대전보건대점,대전광역시,동구,36.3479449837396,127.452977438709,2026-04-29,2026-04-29
20931,금천점,서울특별시,금천구,37.4655817074328,126.893267278289,2026-04-29,2026-04-29
20933,R자양한강점,서울특별시,광진구,37.5342246238487,127.064515983303,2026-04-29,2026-04-29
20934,R연수사랑점,인천광역시,연수구,37.4213254601461,126.698104719555,2026-04-29,2026-04-29
20942,영덕강구항점,경상북도,영덕군,36.3595180022709,129.385016417202,2026-04-29,2026-04-29
20945,서산롯데캐슬점,충청남도,서산시,36.7789825051004,126.439971840012,2026-04-29,2026-04-29
20960,R순암스테이트점,경기도,광주시,37.4116606880777,127.198110558125,2026-04-29,2026-04-29
20968,원종미성점,경기도,부천시,37.5170872477615,126.807386395791,2026-04-29,2026-04-29
20971,구월다복점,인천광역시,남동구,37.4425512858009,126.709402902365,2026-04-29,2026-04-29
20985,도당공단점,경기도,부천시,37.5128730173126,126.782589174776,2026-04-29,2026-04-29
20988,연수현대점,인천광역시,연수구,37.4035001790027,126.675869585701,2026-04-29,2026-04-29
20991,동해묵호등대점,강원특별자치도,동해시,37.5543880269532,129.118100396003,2026-04-29,2026-04-29
20992,대구한실로점,대구광역시,달서구,35.807243315977,128.534717784178,2026-04-29,2026-04-29
20994,창현신명점,경기도,남양주시,37.6474035396611,127.304093978531,2026-04-29,2026-04-29
20996,R증평군청점,충청북도,증평군,36.7860303166393,127.581177063125,2026-04-29,2026-04-29
20997,기장월내점,부산광역시,기장군,35.3279091035703,129.279970966242,2026-04-29,2026-04-29
20999,김포운양한신점,경기도,김포시,37.6514410095482,126.694510472967,2026-04-29,2026-04-29
21002,R장항지움점,경기도,고양시,37.6634691950917,126.764181358671,2026-04-29,2026-04-29
21010,R양평서종점,경기도,양평군,37.6039162342728,127.354463205024,2026-04-29,2026-04-29
21011,세종새내2길점,세종특별자치시,조치원읍,36.596825191501,127.302050923147,2026-04-29,2026-04-29
21015,미추홀구청점,인천광역시,미추홀구,37.4654973905529,126.650240775985,2026-04-29,2026-04-29
21021,천안프라지움점,충청남도,천안시,36.8296862780444,127.140773272235,2026-04-29,2026-04-29
21022,안산와동점,경기도,안산시,37.341692647341,126.819956307904,2026-04-29,2026-04-29
21023,영암대불공단점,전라남도,영암군,34.7663780974165,126.437828089327,2026-04-29,2026-04-29
21024,포항양덕점,경상북도,포항시,36.0829088187272,129.403494318391,2026-04-29,2026-04-29
21028,R군산소룡대로점,전북특별자치도,군산시,35.9775453884523,126.67421080222,2026-04-29,2026-04-29
21033,화정점,경기도,고양시,37.6353137997722,126.82941792817,2026-04-29,2026-04-29
21034,유곡리더스점,울산광역시,중구,35.5632572745766,129.300168054869,2026-04-29,2026-04-29
21059,R익산신동장보고점,전북특별자치도,익산시,35.9578500262706,126.958366905018,2026-04-29,2026-04-29
21060,의령서동주공점,경상남도,의령군,35.3218670285981,128.254161895798,2026-04-29,2026-04-29
21063,대전마치광장점,대전광역시,서구,36.2980599968278,127.337175728862,2026-04-29,2026-04-29
21066,담양창평점,전라남도,담양군,35.2385613349292,127.013563469919,2026-04-29,2026-04-29
21070,창녕남지점,경상남도,창녕군,35.3927706014112,128.479520635837,2026-04-29,2026-04-29
21072,R달동번영점,울산광역시,남구,35.5408569734029,129.329670205337,2026-04-29,2026-04-29
21075,부천백송점,경기도,부천시,37.4987893822071,126.750384003066,2026-04-29,2026-04-29
21077,순천신대점,전라남도,순천시,34.9341426249198,127.547692649326,2026-04-29,2026-04-29
21081,계산노바체점,인천광역시,계양구,37.5405172828465,126.723114756133,2026-04-29,2026-04-29
21082,계명대공학관점,대구광역시,달서구,35.8538856445619,128.480131517772,2026-04-29,2026-04-29
21097,시흥정왕특급점,경기도,시흥시,37.3448731913385,126.756399750535,2026-04-29,2026-04-29
21101,R궁평항점,경기도,화성시,37.1170664405641,126.684564237496,2026-04-29,2026-04-29
21116,김포마산타운점,경기도,김포시,37.6428843945688,126.639744234418,2026-04-29,2026-04-29
21126,신세계센텀점,부산광역시,해운대구,35.1688178394069,129.129523260187,2026-04-29,2026-04-29
21128,태안발전본부3호점,충청남도,태안군,36.8984994826922,126.226416161906,2026-04-29,2026-04-29
21133,R구미옥계원룸점,경상북도,구미시,36.1367191541543,128.414171939696,2026-04-29,2026-04-29
21141,청주우암그린점,충청북도,청주시,36.6474388485035,127.48701292221,2026-04-29,2026-04-29
21142,안성광혜원점,경기도,안성시,37.0090733932308,127.435055849184,2026-04-29,2026-04-29
21144,상암푸르지오점,서울특별시,마포구,37.5820926424763,126.888984720113,2026-04-29,2026-04-29
21148,R영광중앙점,전라남도,영광군,35.2752473274857,126.511684615466,2026-04-29,2026-04-29
21149,R국민대복지관점,서울특별시,성북구,37.6102878430906,126.998520644814,2026-04-29,2026-04-29
21150,R국민대법학관점,서울특별시,성북구,37.6102878430906,126.998520644814,2026-04-29,2026-04-29
21152,R대전원신흥본점,대전광역시,유성구,36.3363286419541,127.3392513701,2026-04-29,2026-04-29
21157,유성반석주공점,대전광역시,유성구,36.3933629903303,127.311412968761,2026-04-29,2026-04-29
21159,주안승기사거리점,인천광역시,미추홀구,37.45044215415,126.689076772632,2026-04-29,2026-04-29
21164,R안산역점,경기도,안산시,37.3271664037292,126.791979934568,2026-04-29,2026-04-29
21192,신세계경기점,경기도,용인시,37.3250029632519,127.108105699045,2026-04-29,2026-04-29
21198,이천해월점,경기도,이천시,37.2138573590933,127.354280205239,2026-04-29,2026-04-29
21214,전주서신타운점,전북특별자치도,전주시,35.8306272769433,127.117669186219,2026-04-29,2026-04-29
21215,R낙산터미널점,강원특별자치도,양양군,38.1177151405278,128.628261976708,2026-04-29,2026-04-29
21216,태안황도점,충청남도,태안군,36.5968127244836,126.381680240856,2026-04-29,2026-04-29
21220,R약사래미안점,울산광역시,중구,35.5703549520906,129.336883636032,2026-04-29,2026-04-29
21221,포스코광양점,전라남도,광양시,34.9354888064557,127.723141266031,2026-04-29,2026-04-29
21236,고양능곡점,경기도,고양시,37.6198731953711,126.823078557708,2026-04-29,2026-04-29
21250,광주퇴촌점,경기도,광주시,37.4578144353304,127.332936660341,2026-04-29,2026-04-29
21252,익산무왕로점,전북특별자치도,익산시,35.9628076484765,126.972797376728,2026-04-29,2026-04-29
21257,R진주주약원룸점,경상남도,진주시,35.1747765343598,128.092565925871,2026-04-29,2026-04-29
21258,파주LG점,경기도,파주시,37.7671535427783,126.793846054256,2026-04-29,2026-04-29
21283,R대구용산센타점,대구광역시,달서구,35.8583009839663,128.531303899503,2026-04-29,2026-04-29
21286,화봉LH점,울산광역시,북구,35.5959737224863,129.365986749807,2026-04-29,2026-04-29
21287,남양산역점,경상남도,양산시,35.3257955400859,129.01868480532,2026-04-29,2026-04-29
21291,R시화병원점,경기도,시흥시,37.349955639806,126.736970968751,2026-04-29,2026-04-29
21296,R세교점,경기도,오산시,37.1761383100468,127.043815991307,2026-04-29,2026-04-29
21297,수원가구거리점,경기도,수원시,37.2588136041057,127.029305120166,2026-04-29,2026-04-29
21299,대전목원대정문점,대전광역시,유성구,36.3303623723981,127.337665692789,2026-04-29,2026-04-29
21302,광주삼성다잘점,경기도,광주시,37.4817606979019,127.281315346546,2026-04-29,2026-04-29
21304,KT고양타워점,경기도,고양시,37.6559804128513,126.776148650626,2026-04-29,2026-04-29
21306,여수나진점,전라남도,여수시,34.707296616323,127.613374857265,2026-04-29,2026-04-29
21321,R서구경서타운점,인천광역시,서구,37.5580377288645,126.652157325021,2026-04-29,2026-04-29
21337,수원정자점,경기도,수원시,37.2989319294993,126.991316911619,2026-04-29,2026-04-29
21341,R호계수자인점,울산광역시,북구,35.6230391810973,129.358002537182,2026-04-29,2026-04-29
21347,여수해양공원점,전라남도,여수시,34.7390749632789,127.744885912607,2026-04-29,2026-04-29
21377,포천운천점,경기도,포천시,38.090748157711,127.265084688961,2026-04-29,2026-04-29
21380,수원세류점,경기도,수원시,37.2637782321428,127.003404497652,2026-04-29,2026-04-29
21389,삼산7단지점,인천광역시,부평구,37.5089606904603,126.732228235138,2026-04-29,2026-04-29
21409,광진삼성쉐르빌점,서울특별시,광진구,37.53985699394,127.09489656845,2026-04-29,2026-04-29
21411,R대구범물청구점,대구광역시,수성구,35.8206087719813,128.642130097227,2026-04-29,2026-04-29
21413,R기장으뜸점,부산광역시,기장군,35.320776298822,129.265384727065,2026-04-29,2026-04-29
21430,가산디지털역점,서울특별시,금천구,37.479966429878,126.88263620024,2026-04-29,2026-04-29
21449,R연수우성점,인천광역시,연수구,37.4122792833529,126.683942084754,2026-04-29,2026-04-29
21451,R인천주안점,인천광역시,미추홀구,37.4555596939464,126.694878381346,2026-04-29,2026-04-29
21453,R안성유안점,경기도,안성시,37.0594246030492,127.256725933197,2026-04-29,2026-04-29
21454,동탄타운하우스점,경기도,화성시,37.1885463756435,127.070816083074,2026-04-29,2026-04-29
21462,원종은데미점,경기도,부천시,37.5206972374254,126.808905829303,2026-04-29,2026-04-29
21464,정읍수성타운점,전북특별자치도,정읍시,35.5682200897364,126.856006186993,2026-04-29,2026-04-29
21472,고속터미널영동선2호점,서울특별시,서초구,37.5064357442307,127.006834366246,2026-04-29,2026-04-29
21473,경주양북한수원점,경상북도,경주시,35.7827635845716,129.448562279651,2026-04-29,2026-04-29
21475,R남원이그린점,전북특별자치도,남원시,35.4258913754019,127.40829593756,2026-04-29,2026-04-29
21478,동해광희점,강원특별자치도,동해시,37.4875860782444,129.103027565132,2026-04-29,2026-04-29
21480,포항청하점,경상북도,포항시,36.1854940352503,129.345262980689,2026-04-29,2026-04-29
21487,경희대문과대점,서울특별시,동대문구,37.5939491407769,127.054890960564,2026-04-29,2026-04-29
21488,중곡아차산점,서울특별시,광진구,37.5574210632565,127.09364628367,2026-04-29,2026-04-29
21490,포항구룡포점,경상북도,포항시,35.9966666559088,129.565511207883,2026-04-29,2026-04-29
21492,군산성신병원점,전북특별자치도,군산시,35.9762583866116,126.706094063965,2026-04-29,2026-04-29
21499,R목동9단지점,서울특별시,양천구,37.51863284127239,126.86068140500731,2026-04-29,2026-04-29
21504,경희대푸른솔문화관점,서울특별시,동대문구,37.5939491407769,127.054890960564,2026-04-29,2026-04-29
21505,경희대정경대점,서울특별시,동대문구,37.5939491407769,127.054890960564,2026-04-29,2026-04-29
21506,구미진평희망점,경상북도,구미시,36.0982842415635,128.425215938358,2026-04-29,2026-04-29
21512,파미에파크점,서울특별시,서초구,37.5044921229104,127.007845270854,2026-04-29,2026-04-29
21513,R구리대명점,경기도,구리시,37.5922707415148,127.134300548031,2026-04-29,2026-04-29
21514,쌍용시티점,서울특별시,영등포구,37.5090149784268,126.894691190507,2026-04-29,2026-04-29
21517,인천문학점,인천광역시,미추홀구,37.4357829248155,126.68285346154,2026-04-29,2026-04-29
21522,광주천진암점,경기도,광주시,37.4550500852415,127.33582216181,2026-04-29,2026-04-29
21532,마산진북점,경상남도,창원시,35.1294144597756,128.486538018104,2026-04-29,2026-04-29
21535,순천중앙사랑점,전라남도,순천시,34.9571099722122,127.486981723002,2026-04-29,2026-04-29
21540,을지로3가점,서울특별시,중구,37.5652613866207,126.99221593401,2026-04-29,2026-04-29
21543,태안몽산포점,충청남도,태안군,36.6701630092628,126.287550770897,2026-04-29,2026-04-29
21545,R경상대국제어학원점,경상남도,진주시,35.1567142172457,128.098001406482,2026-04-29,2026-04-29
21546,문경로또명당점,경상북도,문경시,36.5847308642687,128.182402351502,2026-04-29,2026-04-29
21547,화성청우점,경기도,화성시,37.1864801285657,126.88126000915,2026-04-29,2026-04-29
21552,세종아름점,세종특별자치시,달빛1로,36.5097562432289,127.24720388943,2026-04-29,2026-04-29
21559,안성폴리점,경기도,안성시,37.007623840312,127.259358045047,2026-04-29,2026-04-29
21560,대성리역점,경기도,가평군,37.681688233844,127.378230875611,2026-04-29,2026-04-29
21562,R가평상천휴게소점,경기도,가평군,37.7873668262741,127.462898740974,2026-04-29,2026-04-29
21563,R순천금당중흥점,전라남도,순천시,34.9517340664173,127.531135583166,2026-04-29,2026-04-29
21564,R북삼인평점,경상북도,칠곡군,36.0700971511126,128.340267995557,2026-04-29,2026-04-29
21573,R목포해양대학점,전라남도,목포시,34.7899637493605,126.365826246406,2026-04-29,2026-04-29
21575,안성공도점,경기도,안성시,37.0024795814111,127.169595557317,2026-04-29,2026-04-29
21585,R괴산칠성점,충청북도,괴산군,36.7879475708896,127.864508323867,2026-04-29,2026-04-29
21587,스타필드코엑스몰4호점,서울특별시,강남구,37.5118239121138,127.059159043842,2026-04-29,2026-04-29
21592,여주건은로점,경기도,여주시,37.1957508752172,127.548435672938,2026-04-29,2026-04-29
21593,성수AK점,서울특별시,성동구,37.5415059744829,127.057526618044,2026-04-29,2026-04-29
21598,남원중앙하이츠점,전북특별자치도,남원시,35.4173412950769,127.382684924553,2026-04-29,2026-04-29
21602,강서대저점,부산광역시,강서구,35.2152826880812,128.958863541201,2026-04-29,2026-04-29
21606,김포사우타운점,경기도,김포시,37.620314709876,126.712407756915,2026-04-29,2026-04-29
21611,효목화랑로점,대구광역시,동구,35.8750922605612,128.641941197125,2026-04-29,2026-04-29
21616,한국은행점,서울특별시,중구,37.5617442432919,126.978862530774,2026-04-29,2026-04-29
21618,R내촌휴게소점,경기도,포천시,37.8080572717544,127.25351981462,2026-04-29,2026-04-29
21619,천안두정오성점,충청남도,천안시,36.8313993237338,127.132827786599,2026-04-29,2026-04-29
21621,구룡포구포점,경상북도,포항시,35.9381789866961,129.525741538692,2026-04-29,2026-04-29
21629,R거창상림점,경상남도,거창군,35.6848201657771,127.903334335248,2026-04-29,2026-04-29
21631,R화순광신점,전라남도,화순군,35.0592586341939,126.977652286708,2026-04-29,2026-04-29
21639,등촌현대점,서울특별시,강서구,37.556219490843,126.855292147594,2026-04-29,2026-04-29
21642,속초한라리센점,강원특별자치도,속초시,38.1889001584128,128.603244563621,2026-04-29,2026-04-29
21643,R남동스타점,인천광역시,남동구,37.3942857106396,126.709010005492,2026-04-29,2026-04-29
21644,광주늑현점,경기도,광주시,37.3664251710308,127.316519776987,2026-04-29,2026-04-29
21665,R연희햇살점,서울특별시,서대문구,37.5772475512387,126.932003518596,2026-04-29,2026-04-29
21666,R성안청구점,울산광역시,중구,35.5796727496693,129.315983851901,2026-04-29,2026-04-29
21669,관악문성로점,서울특별시,관악구,37.4775396960194,126.930411353552,2026-04-29,2026-04-29
21671,영남물류점,경상북도,칠곡군,35.961460871215,128.451012229715,2026-04-29,2026-04-29
21672,풍동오토갤러리점,경기도,고양시,37.6622538912463,126.803965144665,2026-04-29,2026-04-29
21675,R광명가학본점,경기도,광명시,37.4162930490081,126.858960978084,2026-04-29,2026-04-29
21683,부천신흥로점,경기도,부천시,37.5134266904482,126.774897016884,2026-04-29,2026-04-29
21684,춘천호텔벤틀리점,강원특별자치도,춘천시,37.8753601117516,127.734312369228,2026-04-29,2026-04-29
21687,안동경북대로점,경상북도,안동시,36.5735786586728,128.697180805812,2026-04-29,2026-04-29
21688,청주오창센터점,충청북도,청주시,36.7211282773358,127.427854753882,2026-04-29,2026-04-29
21690,경희대간호이과대점,서울특별시,동대문구,37.5939491407769,127.054890960564,2026-04-29,2026-04-29
21691,경희대간호이과대위성점,서울특별시,동대문구,37.5939491407769,127.054890960564,2026-04-29,2026-04-29
21705,수영블루점,부산광역시,수영구,35.1645909768588,129.115355486761,2026-04-29,2026-04-29
21706,현대카드1관점,서울특별시,영등포구,37.5291267319364,126.918138245494,2026-04-29,2026-04-29
21707,경상대도서관점,경상남도,진주시,35.1567142172457,128.098001406482,2026-04-29,2026-04-29
21708,구미원평희망점,경상북도,구미시,36.122783521567,128.34816501377,2026-04-29,2026-04-29
21709,동천세차장점,경기도,용인시,37.3423838459712,127.067585756176,2026-04-29,2026-04-29
21710,화정현대점,울산광역시,동구,35.497165959757,129.418333907567,2026-04-29,2026-04-29
21711,진해속천점,경상남도,창원시,35.1446179685978,128.671642040734,2026-04-29,2026-04-29
21716,대림다사랑점,서울특별시,영등포구,37.491258279621,126.900787987929,2026-04-29,2026-04-29
21719,금오공대학생회관점,경상북도,구미시,36.1456315429562,128.387881880598,2026-04-29,2026-04-29
21724,금오공대점,경상북도,구미시,36.1456315429562,128.387881880598,2026-04-29,2026-04-29
21725,현대카드3관점,서울특별시,영등포구,37.5291267319364,126.918138245494,2026-04-29,2026-04-29
21728,천안단대점,충청남도,천안시,36.8304005889725,127.164496833185,2026-04-29,2026-04-29
21729,경산펜타힐즈점,경상북도,경산시,35.8275922835748,128.719706701564,2026-04-29,2026-04-29
21735,금곡빌리지점,경기도,수원시,37.2749274907352,126.934669539499,2026-04-29,2026-04-29
21736,화성고정리점,경기도,화성시,37.2439642664984,126.744307005777,2026-04-29,2026-04-29
21738,창원대봉림관점,경상남도,창원시,35.2459596336655,128.694816891338,2026-04-29,2026-04-29
21740,가산포휴점,서울특별시,금천구,37.4850725318802,126.878884450061,2026-04-29,2026-04-29
21743,대전복용점,대전광역시,유성구,36.3419163289819,127.313916285616,2026-04-29,2026-04-29
21746,건대차이나점,서울특별시,광진구,37.539286086141,127.065167442616,2026-04-29,2026-04-29
21749,창원대점,경상남도,창원시,35.2459596336655,128.694816891338,2026-04-29,2026-04-29
21750,완도청해점,전라남도,완도군,34.3231658712957,126.741066791887,2026-04-29,2026-04-29
21755,대전갈마다복점,대전광역시,서구,36.3429654576785,127.371263444205,2026-04-29,2026-04-29
21756,화정백양점,경기도,고양시,37.6305298489985,126.835321486092,2026-04-29,2026-04-29
21760,순천연향점,전라남도,순천시,34.9517454851098,127.519154012957,2026-04-29,2026-04-29
21762,면산빌리지점,경기도,파주시,37.7690351185193,126.780043914339,2026-04-29,2026-04-29
21782,다산아이비플레이스점,경기도,남양주시,37.6267281939684,127.150541010628,2026-04-29,2026-04-29
21783,R안산신길본점,경기도,안산시,37.3320938859165,126.787326368614,2026-04-29,2026-04-29
21787,구래월드스타점,경기도,김포시,37.6457072203675,126.627804882194,2026-04-29,2026-04-29
21798,경북도청점,경상북도,안동시,36.5761205474728,128.505722686385,2026-04-29,2026-04-29
21808,R경희대청운관점,서울특별시,동대문구,37.5937443884234,127.053223139329,2026-04-29,2026-04-29
21810,경희대의과대점,서울특별시,동대문구,37.5939491407769,127.054890960564,2026-04-29,2026-04-29
21813,수유청수점,서울특별시,강북구,37.6368910962302,127.012443498069,2026-04-29,2026-04-29
21815,상지대동악관점,강원특별자치도,원주시,37.3691192870386,127.929915065919,2026-04-29,2026-04-29
21816,대전도마센터점,대전광역시,서구,36.3174514988291,127.380202282663,2026-04-29,2026-04-29
21821,고대타이거플라자점,서울특별시,성북구,37.5887034223667,127.031698331241,2026-04-29,2026-04-29
21822,현대홈씨티점,서울특별시,도봉구,37.6444604697605,127.033580151894,2026-04-29,2026-04-29
21827,서구공촌점,인천광역시,서구,37.5515103659745,126.682429143277,2026-04-29,2026-04-29
21829,대구대현점,대구광역시,북구,35.8816238983992,128.607248101623,2026-04-29,2026-04-29
21831,구례명지점,전라남도,구례군,35.2155967417202,127.459532682034,2026-04-29,2026-04-29
21832,여수스위트엠점,전라남도,여수시,34.7612822904449,127.656953417642,2026-04-29,2026-04-29
21836,R익산어양드림점,전북특별자치도,익산시,35.9570059679756,126.979916775102,2026-04-29,2026-04-29
