code,title,sido,sigungu,lat,lng,first_seen_at,last_seen_at
V1018,GS25잠실구장점,서울,송파구,37.5113671128104,127.07153621778,2026-04-30,2026-04-30
V1019,GS25잠실1루점,서울,송파구,37.5164471414021,127.073588738201,2026-04-30,2026-04-30
V1020,GS25잠실3루점,서울,송파구,37.5164471414021,127.073588738201,2026-04-30,2026-04-30
V1029,GS25잠실경기장점,서울,송파구,37.5164471414021,127.073588738201,2026-04-30,2026-04-30
V1049,GS25강남동원점,서울,강남구,37.5069168418451,127.054591344246,2026-04-30,2026-04-30
V1119,GS25건국점,서울,광진구,37.5456530862193,127.076249474139,2026-04-30,2026-04-30
V1130,GS25지에스강남점,서울,강남구,37.5017726227389,127.036820463742,2026-04-30,2026-04-30
V1202,GS25서울월드컵경기장점,서울,마포구,37.5683127572816,126.897331323498,2026-04-30,2026-04-30
V1203,GS25서울월드컵광장점,서울,마포구,37.5696437039247,126.898987083681,2026-04-30,2026-04-30
V1242,GS25잠실보조2점,서울,송파구,37.5164471414021,127.073588738201,2026-04-30,2026-04-30
V1243,GS25잠실보조5점,서울,송파구,37.5164471414021,127.073588738201,2026-04-30,2026-04-30
V1247,GS25부평중앙점,인천,부평구,37.4925600712766,126.725846855677,2026-04-30,2026-04-30
V1258,GS25잠실야구장점,서울,송파구,37.5164471414021,127.073588738201,2026-04-30,2026-04-30
V1344,GS25드라마PPL점,경기,파주시,37.7565862824492,126.744566524048,2026-04-30,2026-04-30
V135,GS25역삼2점,서울,강남구,37.4941210412481,127.035516318398,2026-04-30,2026-04-30
V1649,GS25마산합성점,경남,창원시,35.237794604883,128.58473288088,2026-04-30,2026-04-30
V1658,GS25덕천점,부산,북구,35.21000911868,129.006933258338,2026-04-30,2026-04-30
V1810,GS25제주노형점,제주,제주시,33.4878829379448,126.482158884611,2026-04-30,2026-04-30
V1824,GS25창원경상대병원점,경남,창원시,35.1992500368761,128.70773762877,2026-04-30,2026-04-30
V1831,GS25대불중앙점(삭제예정),전남,영암군,34.75448962,126.45586979,2026-04-30,2026-04-30
V1846,GS25기장원자력의학원점,부산,기장군,35.3214859426991,129.243603111447,2026-04-30,2026-04-30
V1848,GS25기장의학원위성점,부산,기장군,35.3214859426991,129.243603111447,2026-04-30,2026-04-30
V1880,S2상왕십리역점,서울,성동구,37.5643458955156,127.029632456366,2026-04-30,2026-04-30
V1882,S4동작역점,서울,동작구,37.5028845711214,126.980278831646,2026-04-30,2026-04-30
V1884,GS25서울월드컵경기장2점,서울,마포구,37.5683127572816,126.897331323498,2026-04-30,2026-04-30
V1904,GS25상무본점,광주,서구,35.1541041283974,126.849386860156,2026-04-30,2026-04-30
V1918,GS25광주공항점,광주,광산구,35.1404490491835,126.810228335066,2026-04-30,2026-04-30
V1948,GS25강서LG사이언스점,서울,강서구,37.5635477219576,126.835475064697,2026-04-30,2026-04-30
V1957,GS25외야1루점,서울,송파구,37.5164471414021,127.073588738201,2026-04-30,2026-04-30
V1958,GS25외야3루점,서울,송파구,37.5164471414021,127.073588738201,2026-04-30,2026-04-30
V1959,GS25보조1점,서울,송파구,37.5164471414021,127.073588738201,2026-04-30,2026-04-30
V1960,GS25보조3점,서울,송파구,37.5164471414021,127.073588738201,2026-04-30,2026-04-30
V1961,GS25보조4점,서울,송파구,37.5164471414021,127.073588738201,2026-04-30,2026-04-30
V1962,GS25보조6점,서울,송파구,37.5164471414021,127.073588738201,2026-04-30,2026-04-30
V1980,GS25한화리조트거제점,경남,거제시,35.0128479101864,128.706968548153,2026-04-30,2026-04-30
V1984,GS25거제장평점,경남,거제시,34.892541816556,128.610366166995,2026-04-30,2026-04-30
V1992,GS25서울월드컵경기장3점,서울,마포구,37.5683127572816,126.897331323498,2026-04-30,2026-04-30
V1995,GS25서울월드컵경기장4점,서울,마포구,37.5683127572816,126.897331323498,2026-04-30,2026-04-30
V1998,H&B여수충무점,전남,여수시,34.7413199123503,127.732059595271,2026-04-30,2026-04-30
V1999,H&B우장산역점,서울,강서구,37.5481455490144,126.836031320911,2026-04-30,2026-04-30
V2020,GS25경기대점,경기,수원시,37.2999534073882,127.03050812903,2026-04-30,2026-04-30
V2034,GS25용현인하점,인천,남구,37.4493271765508,126.66287264319,2026-04-30,2026-04-30
V2048,GS25동숭점,서울,종로구,37.5836732060897,127.002559653903,2026-04-30,2026-04-30
V2075,GS25신천으뜸점,서울,송파구,37.5106365268087,127.084157272762,2026-04-30,2026-04-30
V2076,GS25장충점,서울,중구,37.5612159762304,127.005382807028,2026-04-30,2026-04-30
V2101,GS25종로낙원점,서울,종로구,37.5722377584898,126.988629315939,2026-04-30,2026-04-30
V2119,GS25경희점,서울,동대문구,37.5927777763167,127.052330134008,2026-04-30,2026-04-30
V2138,GS25반포제일점,서울,서초구,37.5087329208097,127.019776128062,2026-04-30,2026-04-30
V2171,GS25수원장안점,경기,수원시,37.3091471006989,126.994065738307,2026-04-30,2026-04-30
V2209,GS25안산현대점,경기,안산시,37.2889380470175,126.849696665036,2026-04-30,2026-04-30
V221,GS25고척점,서울,구로구,37.5001705132706,126.867186678332,2026-04-30,2026-04-30
V2252,GS25상계역점,서울,노원구,37.6632267883139,127.073515792868,2026-04-30,2026-04-30
V2270,GS25보라매타운점,서울,관악구,37.4917750804707,126.925369715602,2026-04-30,2026-04-30
V2275,GS25숙대점,서울,용산구,37.5446160918044,126.967240897451,2026-04-30,2026-04-30
V2276,GS25명지점,서울,서대문구,37.5792701251744,126.923809325119,2026-04-30,2026-04-30
V22A2,GS25옥정본점,경기,양주시,37.8161630113656,127.097494729328,2026-04-30,2026-04-30
V2300,GS25역삼넥스빌점,서울,강남구,37.50196002332,127.044373063952,2026-04-30,2026-04-30
V2314,GS25익산인화점,전북,익산시,35.9316119909599,126.948271622059,2026-04-30,2026-04-30
V2323,GS25숭인본점,서울,종로구,37.5737440132412,127.022005054844,2026-04-30,2026-04-30
V2374,GS25대전동성점,대전,서구,36.3556259408979,127.399096875198,2026-04-30,2026-04-30
V2379,GS25마포도화점,서울,마포구,37.5403610148046,126.948594808642,2026-04-30,2026-04-30
V2405,GS25수원행복점,경기,수원시,37.2467894474585,127.060776702367,2026-04-30,2026-04-30
V2417,GS25호계점,경기,안양시,37.3835461350382,126.959333521434,2026-04-30,2026-04-30
V2419,GS25수원시티점,경기,수원시,37.2652740125927,127.028731201242,2026-04-30,2026-04-30
V2424,GS25고대개운점,서울,성북구,37.5888519618257,127.029348806539,2026-04-30,2026-04-30
V2458,GS25계산동경점,인천,계양구,37.5357866591781,126.736314020529,2026-04-30,2026-04-30
V2461,GS25원곡로점,경기,안산시,37.3310628621393,126.794407059009,2026-04-30,2026-04-30
V2481,GS25안양동영점,경기,안양시,37.3852106789094,126.935743649067,2026-04-30,2026-04-30
V249,GS25신구로점,서울,구로구,37.4963738700286,126.891569390731,2026-04-30,2026-04-30
V2511,GS25관악봉천점,서울,관악구,37.4807264877796,126.950266589248,2026-04-30,2026-04-30
V2526,GS25안산초지점,경기,안산시,37.307277007288,126.81517023206,2026-04-30,2026-04-30
V2531,GS25수원뉴타운점,경기,수원시,37.2598975075459,127.044628249774,2026-04-30,2026-04-30
V2542,GS25북가좌점,서울,서대문구,37.5807988781037,126.91167313622,2026-04-30,2026-04-30
V2557,GS25구리수택점,경기,구리시,37.5997513212319,127.138196458027,2026-04-30,2026-04-30
V2570,GS25논현금옥점,서울,강남구,37.5129482818755,127.025037495218,2026-04-30,2026-04-30
V2574,GS25목천동우점,충남,천안시,36.772095556256,127.19421303142,2026-04-30,2026-04-30
V2599,GS25신림신성점,서울,관악구,37.4719783493114,126.939275699496,2026-04-30,2026-04-30
V2609,GS25부개역점,인천,부평구,37.4882025576853,126.739625489717,2026-04-30,2026-04-30
V2619,GS25구로미성점,서울,구로구,37.5061988960698,126.876675578824,2026-04-30,2026-04-30
V2644,GS25의왕내손점,경기,의왕시,37.374906027386,126.968733707465,2026-04-30,2026-04-30
V2656,GS25수원매탄점,경기,수원시,37.2645118102493,127.044716612095,2026-04-30,2026-04-30
V2739,GS25양재삼익점,서울,서초구,37.4785188225374,127.040453957467,2026-04-30,2026-04-30
V2767,GS25녹번점,서울,은평구,37.6073343523395,126.932420880515,2026-04-30,2026-04-30
V2782,GS25명륜아남점,서울,종로구,37.5864281076458,127.000156516116,2026-04-30,2026-04-30
V2795,GS25궁동타운점,대전,유성구,36.3626245901802,127.35000279862,2026-04-30,2026-04-30
V2817,GS25수원은마점,경기,수원시,37.2543212875723,127.073207396526,2026-04-30,2026-04-30
V2832,GS25수원조원점,경기,수원시,37.3004458118696,127.012657464753,2026-04-30,2026-04-30
V2850,GS25대전자양로점,대전,동구,36.3534472487841,127.438588739463,2026-04-30,2026-04-30
V2862,GS25익산영등점,전북,익산시,35.9605612580316,126.978596354443,2026-04-30,2026-04-30
V294,GS25서대문창천점,서울,서대문구,37.5587247950484,126.927590580771,2026-04-30,2026-04-30
V2959,GS25대전중리점,대전,대덕구,36.3608456173539,127.425097531314,2026-04-30,2026-04-30
V2963,GS25대전대림점,대전,유성구,36.3621809668003,127.352959357641,2026-04-30,2026-04-30
V2975,GS25서울과기대점,서울,노원구,37.6278934224582,127.077647164605,2026-04-30,2026-04-30
V2977,GS25명륜성대점,서울,종로구,37.5879024521797,126.996570125591,2026-04-30,2026-04-30
V2A22,GS25울산법대로점,울산,남구,35.536278075894,129.286125200421,2026-04-30,2026-04-30
V2A23,GS25진주신평공원점,경남,진주시,35.1733265832192,128.066930588837,2026-04-30,2026-04-30
V2A25,GS25영동대사랑점,충북,영동군,36.1862373388925,127.780017259677,2026-04-30,2026-04-30
V2A27,GS25파주미래점,경기,파주시,37.8612332094341,126.787332062586,2026-04-30,2026-04-30
V2A28,GS25동해북평점,강원,동해시,37.4798743173514,129.121115414968,2026-04-30,2026-04-30
V2A29,GS25서구엠파크점,인천,서구,37.4895442902725,126.66483666534,2026-04-30,2026-04-30
V2A32,GS25동산휴먼시아점,인천,동구,37.4743020985369,126.650037619528,2026-04-30,2026-04-30
V2A33,GS25학익미소점,인천,미추홀구,37.443637262006,126.672884535158,2026-04-30,2026-04-30
V2A35,GS25상도센타점,경북,포항시,36.0115816743837,129.350416851669,2026-04-30,2026-04-30
V2A36,GS25상대중앙점,경남,진주시,35.188461056222,128.115115109472,2026-04-30,2026-04-30
V2A44,GS25외도월대점,제주,제주시,33.4923352618937,126.433466693143,2026-04-30,2026-04-30
V2A48,GS25정릉유명점,서울,성북구,37.6063218486316,126.998950621699,2026-04-30,2026-04-30
V2A54,GS25강화도서관점,인천,강화군,37.7483952526783,126.483023584579,2026-04-30,2026-04-30
V2A55,GS25LG복지동점,경기,평택시,37.1226155505184,127.090657687532,2026-04-30,2026-04-30
V2A56,GS25대치은마점,서울,강남구,37.5000160610199,127.066100937004,2026-04-30,2026-04-30
V2A63,GS25기산래미안점,경기,화성시,37.2226260125027,127.048838879788,2026-04-30,2026-04-30
V2A65,GS25용인구갈점,경기,용인시,37.282793790195,127.111787228848,2026-04-30,2026-04-30
V2A69,GS25고잔중앙점,인천,남동구,37.3882579118948,126.716873239542,2026-04-30,2026-04-30
V2A73,GS25오송호반점,충북,청주시,36.6277981840053,127.325079192645,2026-04-30,2026-04-30
V2A78,GS25LX광화문빌딩점,서울,종로구,37.5694048179217,126.971495092823,2026-04-30,2026-04-30
V2A83,GS25송산수노을점,경기,화성시,37.2866961533538,126.820544898867,2026-04-30,2026-04-30
V2A84,GS25통진서암점,경기,김포시,37.6930554259075,126.601774644235,2026-04-30,2026-04-30
V2A93,GS25사천한주점,경남,사천시,35.0672368524369,128.078420330242,2026-04-30,2026-04-30
V2B32,GS25포승쌍용마을점,경기,평택시,36.9980993938919,126.838426372663,2026-04-30,2026-04-30
V2B34,GS25유신림마음점,서울,관악구,37.4830814310579,126.929508050463,2026-04-30,2026-04-30
V2B37,GS25마도사거리점,경기,화성시,37.2075047877005,126.775622214632,2026-04-30,2026-04-30
V2B42,GS25웨스턴돔점,경기,고양시,37.655881280562,126.771988098195,2026-04-30,2026-04-30
V2B45,GS25발안중앙점,경기,화성시,37.1323445341095,126.899742514993,2026-04-30,2026-04-30
V2B55,GS25S가산디지털단지역점,서울,금천구,37.4804047923525,126.882680701224,2026-04-30,2026-04-30
V2B56,GS25구로허브점,서울,구로구,37.4955720398737,126.872514634512,2026-04-30,2026-04-30
V2B57,GS25의정해태점,경기,의정부시,37.7393511839924,127.044817104866,2026-04-30,2026-04-30
V2B59,GS25학동제일점,서울,강남구,37.5152264895306,127.032541610374,2026-04-30,2026-04-30
V2B64,GS25정읍북면스타점,전북,정읍시,35.603814473455,126.884808950104,2026-04-30,2026-04-30
V2B66,GS25청량현대점,서울,동대문구,37.5888536185925,127.052878032498,2026-04-30,2026-04-30
V2B69,GS25마곡LG사이언스점,서울,강서구,37.5633532392817,126.831290071095,2026-04-30,2026-04-30
V2B73,GS25수원경수로점,경기,수원시,37.2970238512318,127.013999228143,2026-04-30,2026-04-30
V2B75,GS25방배천로점,서울,서초구,37.479204002071,126.984365316001,2026-04-30,2026-04-30
V2B76,GS25원당대림점,경기,고양시,37.6611428369399,126.839666162219,2026-04-30,2026-04-30
V2B77,GS25방배아트자이점,서울,서초구,37.4801836280316,127.002069454856,2026-04-30,2026-04-30
V2B82,GS25청라핑크점,인천,서구,37.5206898023017,126.625277576836,2026-04-30,2026-04-30
V2B83,GS25궁동상지점,서울,구로구,37.4941345415996,126.83300160849,2026-04-30,2026-04-30
V2B84,GS25배곧호반점,경기,시흥시,37.3744476622211,126.72547446162,2026-04-30,2026-04-30
V2B88,GS25보령주포공단점,충남,보령시,36.4020417553382,126.570255750154,2026-04-30,2026-04-30
V2C22,GS25토월대동점,경남,창원시,35.2197807547508,128.689637903304,2026-04-30,2026-04-30
V2C23,GS25마산한일점,경남,창원시,35.2267891282782,128.575173180584,2026-04-30,2026-04-30
V2C24,GS25정읍스마일점,전북,정읍시,35.5634383975506,126.860074270256,2026-04-30,2026-04-30
V2C26,GS25외대기숙사점,경기,용인시,37.3346609295015,127.262981872004,2026-04-30,2026-04-30
V2C34,GS25수지LH점,경기,용인시,37.3213366325679,127.091995803445,2026-04-30,2026-04-30
V2C42,GS25남악부영점,전남,무안군,34.8121152970618,126.472676229525,2026-04-30,2026-04-30
V2C54,GS25연동신라점,제주,제주시,33.4861813767425,126.486782843247,2026-04-30,2026-04-30
V2C62,GS25신곡그린빌점,경기,의정부시,37.7468644603873,127.060379644581,2026-04-30,2026-04-30
V2C64,GS25둔산청솔점,대전,서구,36.3524332918096,127.398653407637,2026-04-30,2026-04-30
V2C76,GS25제기정화점,서울,동대문구,37.5851845780333,127.041477431861,2026-04-30,2026-04-30
V2C83,GS25제주아쿠아플라넷점,제주,서귀포시,33.4328642270878,126.927743698258,2026-04-30,2026-04-30
V2C85,GS25소양벚꽃로점,전북,완주군,35.8652391997527,127.247314658474,2026-04-30,2026-04-30
V2C86,GS25고성제일점,강원,고성군,38.4877270603285,128.432587610161,2026-04-30,2026-04-30
V2C92,GS25독산초교점,서울,금천구,37.4642732222773,126.900656600177,2026-04-30,2026-04-30
V2C96,GS25시흥검바위점,경기,시흥시,37.4319882861754,126.796012255054,2026-04-30,2026-04-30
V2C99,GS25사상대동점,부산,사상구,35.1489071403082,128.985700085368,2026-04-30,2026-04-30
V2D24,GS25분당수호점,경기,성남시,37.3698366429494,127.110300769944,2026-04-30,2026-04-30
V2D25,GS25시흥한라점,경기,시흥시,37.3617146201633,126.717020074111,2026-04-30,2026-04-30
V2D27,GS25뉴당진읍내원룸점,충남,당진시,36.8962148038196,126.63842290529,2026-04-30,2026-04-30
V2D33,GS25달서상인점,대구,달서구,35.8181341450377,128.540829419789,2026-04-30,2026-04-30
V2D35,GS25강서공항점,서울,강서구,37.5581750006724,126.810783113401,2026-04-30,2026-04-30
V2D36,GS25지산목련점,대구,수성구,35.8217513316483,128.628946921289,2026-04-30,2026-04-30
V2D44,GS25인천용마루점,인천,미추홀구,37.4590410384438,126.643156954269,2026-04-30,2026-04-30
V2D46,GS25당진도비도점,충남,당진시,37.0180616712795,126.461987720635,2026-04-30,2026-04-30
V2D48,GS25광명골드중앙점,경기,광명시,37.4687288300623,126.853654226089,2026-04-30,2026-04-30
V2D54,GS25대정중앙점,제주,서귀포시,33.2213557553702,126.25183784113,2026-04-30,2026-04-30
V2D55,GS25S9올림픽공원역점,서울,송파구,37.5162016309482,127.130265325605,2026-04-30,2026-04-30
V2D56,GS25안산호수점,경기,안산시,37.3037416631606,126.818462971002,2026-04-30,2026-04-30
V2D57,GS25안산본오점,경기,안산시,37.2919083987927,126.868080043457,2026-04-30,2026-04-30
V2D67,GS25간석중앙점,인천,남동구,37.4600563844255,126.697753411637,2026-04-30,2026-04-30
V2D72,GS25청담칼릭스점,서울,강남구,37.5252772443552,127.050830240533,2026-04-30,2026-04-30
V2D73,GS25은평불광점,서울,은평구,37.6205581459026,126.925095578593,2026-04-30,2026-04-30
V2D74,GS25예산덕산점,충남,예산군,36.6935938187416,126.661213965146,2026-04-30,2026-04-30
V2D75,GS25테크노마트점,서울,구로구,37.5069942274055,126.890292826566,2026-04-30,2026-04-30
V2D76,GS25안산선부로점,경기,안산시,37.3419780102542,126.806297092143,2026-04-30,2026-04-30
V2D77,GS25동구검사점,대구,동구,35.8884783609868,128.653820799589,2026-04-30,2026-04-30
V2D84,GS25천곡우방점,울산,북구,35.6385815160277,129.324696034083,2026-04-30,2026-04-30
V2D85,GS25울산반구캐슬점,울산,중구,35.5596220199457,129.344714997639,2026-04-30,2026-04-30
V2D92,GS25남면상수,경기,양주시,37.8731031720192,126.995663285887,2026-04-30,2026-04-30
V2D95,GS25과천양지점,경기,과천시,37.4499414893587,126.998560298584,2026-04-30,2026-04-30
V2D99,GS25양촌타워점,경기,김포시,37.6546554657309,126.630247868268,2026-04-30,2026-04-30
V2E27,GS25고척으뜸점,서울,구로구,37.5058427332101,126.858301657205,2026-04-30,2026-04-30
V2E29,GS25대연동원점,부산,남구,35.136998497343,129.095879501982,2026-04-30,2026-04-30
V2E34,GS25광주역점,광주,북구,35.1645593152432,126.909798066154,2026-04-30,2026-04-30
V2E36,GS25간현유원지점,강원,원주시,37.3648114116548,127.832992048581,2026-04-30,2026-04-30
V2E38,GS25S6상수역점,서울,마포구,37.5481197892069,126.922661122306,2026-04-30,2026-04-30
V2E45,GS25신흥대림점,세종,조치원읍,36.5935006694912,127.285221726511,2026-04-30,2026-04-30
V2E47,GS25북삼현대점,경북,칠곡군,36.0671446914694,128.335660480711,2026-04-30,2026-04-30
V2E48,GS25독산골드파크3차점,서울,금천구,37.4593796598347,126.896692865032,2026-04-30,2026-04-30
V2E52,GS25동구진성로점,울산,동구,35.5067127477065,129.427217986047,2026-04-30,2026-04-30
V2E56,GS25가평파란채점,경기,가평군,37.8381008510151,127.507140394203,2026-04-30,2026-04-30
V2E66,GS25사천동아점,충북,청주시,36.6653309186532,127.475289211087,2026-04-30,2026-04-30
V2E69,GS25고대중앙광장점,서울,성북구,37.588716059649,127.032554976856,2026-04-30,2026-04-30
V2E75,GS25진해고점,경남,창원시,35.1602020390587,128.662954587529,2026-04-30,2026-04-30
V2E82,GS25구로한일점,서울,구로구,37.5082329906764,126.85204443441,2026-04-30,2026-04-30
V2E84,GS25개포소망점,서울,강남구,37.4892089592215,127.067954115282,2026-04-30,2026-04-30
V2E85,GS25목감샘터점,경기,시흥시,37.3811470659316,126.863060652136,2026-04-30,2026-04-30
V2E98,GS25혁신일번지점,전북,완주군,35.8371936767797,127.057105747924,2026-04-30,2026-04-30
V2E99,GS25중동헤리움점,경기,부천시,37.5027954510188,126.773535854868,2026-04-30,2026-04-30
V2F26,GS25S6돌곶이역점,서울,성북구,37.6105665389547,127.05711102127,2026-04-30,2026-04-30
V2F36,GS25남양주천마점,경기,남양주시,37.6631162937926,127.248259516034,2026-04-30,2026-04-30
V2F39,GS25부천직업학교점,경기,부천시,37.4838935923445,126.761610523119,2026-04-30,2026-04-30
V2F44,GS25석남본점,인천,서구,37.5117676643388,126.663604247544,2026-04-30,2026-04-30
V2F53,GS25논현그린점,인천,남동구,37.3981452927782,126.731353097832,2026-04-30,2026-04-30
V2F54,GS25중화금성점,서울,중랑구,37.5969142544071,127.07862932194,2026-04-30,2026-04-30
V2F55,GS25수원영일점,경기,수원시,37.2480852608045,127.075459130085,2026-04-30,2026-04-30
V2F63,GS25옥천다나점,전남,해남군,34.5669501699956,126.646868311341,2026-04-30,2026-04-30
V2F66,GS25강남사랑점,서울,강남구,37.4961574923781,127.035524092971,2026-04-30,2026-04-30
V2F68,GS25영덕남정점,경북,영덕군,36.2723225145931,129.377268193412,2026-04-30,2026-04-30
V2F72,GS25나운보람점,전북,군산시,35.9704709764048,126.69930604972,2026-04-30,2026-04-30
V2F73,GS25원천베스트점,경기,수원시,37.2667617086161,127.062423204817,2026-04-30,2026-04-30
V2F74,GS25광교40단지점,경기,수원시,37.2953257098541,127.080758461252,2026-04-30,2026-04-30
V2F76,GS25사근중앙점,서울,성동구,37.5610090873014,127.048114011507,2026-04-30,2026-04-30
V2F77,GS25면목본점,서울,중랑구,37.5904669027237,127.087291757065,2026-04-30,2026-04-30
V2F79,GS25구미옥계중앙점,경북,구미시,36.1469257170754,128.416323030687,2026-04-30,2026-04-30
V2F86,GS25철원화지리점,강원,철원군,38.2142049361021,127.213733039687,2026-04-30,2026-04-30
V2F92,GS25고덕시티점,서울,강동구,37.5540512032022,127.154589771727,2026-04-30,2026-04-30
V2F93,GS25화곡송화점,서울,강서구,37.5474030259702,126.835658090981,2026-04-30,2026-04-30
V2F94,GS25화곡까치산점,서울,강서구,37.5326204690194,126.844271597754,2026-04-30,2026-04-30
V2F96,GS25김천대로점,경북,김천시,36.116957321444,128.151685318233,2026-04-30,2026-04-30
V2G26,GS25광장학산점,서울,광진구,37.5512938041715,127.110347142954,2026-04-30,2026-04-30
V2G27,GS25엘지산단점,경기,평택시,37.1234422915437,127.08216278836,2026-04-30,2026-04-30
V2G28,GS25백암기안점,경기,용인시,37.164599633211,127.375405435779,2026-04-30,2026-04-30
V2G34,GS25태화동부일신점,울산,중구,35.5527883095726,129.297219764807,2026-04-30,2026-04-30
V2G35,GS25서구한울점,부산,서구,35.0967571008209,129.023096156266,2026-04-30,2026-04-30
V2G37,GS25부산초량로점,부산,동구,35.1195880818359,129.03599828456,2026-04-30,2026-04-30
V2G39,GS25서암드림점,경기,김포시,37.6952443155322,126.59717540549,2026-04-30,2026-04-30
V2G48,GS25수지원희점,경기,용인시,37.3067344631806,127.084376247129,2026-04-30,2026-04-30
V2G55,GS25춘천럭키점,강원,춘천시,37.8621345515426,127.740203097144,2026-04-30,2026-04-30
V2G68,GS25가경한마음점,충북,청주시,36.6231548518335,127.441608227948,2026-04-30,2026-04-30
V2G76,GS25월롱산로점,경기,파주시,37.781447916448,126.763638066359,2026-04-30,2026-04-30
V2G77,GS25동구하이빌점,대구,동구,35.8837683037193,128.656417976199,2026-04-30,2026-04-30
V2G82,GS25구미고아점,경북,구미시,36.1883958925889,128.34819828594,2026-04-30,2026-04-30
V2G85,GS25부산충장대로점,부산,중구,35.1055553409621,129.036807632366,2026-04-30,2026-04-30
V2G88,GS25청천금호점,인천,부평구,37.5071237327399,126.714470234465,2026-04-30,2026-04-30
V2G92,GS25월롱산단점,경기,파주시,37.8304953726778,126.778099594866,2026-04-30,2026-04-30
V2G99,GS25의정신세계점,경기,의정부시,37.7515269385135,127.070011791069,2026-04-30,2026-04-30
V2H22,GS25현풍시네마점,대구,달성군,35.6929937140061,128.455664792393,2026-04-30,2026-04-30
V2H23,GS25반월대우점,경기,화성시,37.2338387291929,127.066233914603,2026-04-30,2026-04-30
V2H28,GS25분당미래점,경기,성남시,37.370528918132,127.138122927535,2026-04-30,2026-04-30
V2H29,GS25용봉헤븐점,광주,북구,35.1826356589989,126.907185552143,2026-04-30,2026-04-30
V2H32,GS25용강스파점,경북,경주시,35.8764970785227,129.230247724805,2026-04-30,2026-04-30
V2H35,GS25대산센터점,충남,서산시,36.9710631676052,126.411431923623,2026-04-30,2026-04-30
V2H36,GS25제천용두시티점,충북,제천시,37.1394730876826,128.200816480318,2026-04-30,2026-04-30
V2H37,GS25진주인사대로점,경남,진주시,35.1900082133306,128.073763637598,2026-04-30,2026-04-30
V2H43,GS25평내신명점,경기,남양주시,37.6444543609703,127.239608620184,2026-04-30,2026-04-30
V2H45,GS25세곡1단지점,서울,강남구,37.4811883142432,127.092137062928,2026-04-30,2026-04-30
V2H54,GS25대전대학사점,대전,동구,36.3376019505907,127.457884386532,2026-04-30,2026-04-30
V2H59,GS25성남금광점,경기,성남시,37.4461171328881,127.161533706047,2026-04-30,2026-04-30
V2H62,GS25남해남양점,경남,남해군,34.8388041336111,127.885969086518,2026-04-30,2026-04-30
V2H67,GS25회산현대점,강원,강릉시,37.7408886491048,128.865378039862,2026-04-30,2026-04-30
V2H73,GS25석촌럭키점,서울,송파구,37.5084670292141,127.106816879529,2026-04-30,2026-04-30
V2H75,GS25감만판테라,부산,남구,35.1116664706091,129.080149424445,2026-04-30,2026-04-30
V2H77,GS25옥포허브시티점,대구,달성군,35.7821939986206,128.435511892828,2026-04-30,2026-04-30
V2H85,GS25신안센터점,광주,북구,35.1649005948391,126.90565528412,2026-04-30,2026-04-30
V2H93,GS25동탄행복점,경기,화성시,37.1858468045594,127.126685005669,2026-04-30,2026-04-30
V2H96,GS25예천현대점,경북,예천군,36.5757798339102,128.487361501052,2026-04-30,2026-04-30
V2J27,GS25북삼드림점,경북,칠곡군,36.0710302196342,128.34793353581,2026-04-30,2026-04-30
V2J28,GS25덕정은동점,경기,양주시,37.8385623323951,127.068546788358,2026-04-30,2026-04-30
V2J35,GS25인천내항점,인천,중구,37.4583408215202,126.626983862974,2026-04-30,2026-04-30
V2J49,GS25철원명성로점,강원,철원군,38.1478515774889,127.307348664083,2026-04-30,2026-04-30
V2J52,GS25안녕원룸점,경기,화성시,37.2117764730723,126.981511726593,2026-04-30,2026-04-30
V2J53,GS25향남하길점,경기,화성시,37.119661998987,126.916939819367,2026-04-30,2026-04-30
V2J55,GS25가경세원점,충북,청주시,36.6274441887741,127.437675176757,2026-04-30,2026-04-30
V2J58,GS25가좌제일점,인천,서구,37.4952987815615,126.683042787973,2026-04-30,2026-04-30
V2J62,GS25백석효성점,경기,고양시,37.6415835704074,126.78694192128,2026-04-30,2026-04-30
V2J67,GS25구미구평부영점,경북,구미시,36.0905564105144,128.439644035412,2026-04-30,2026-04-30
V2J68,GS25이동저수지점,경기,용인시,37.1360540511724,127.199965833133,2026-04-30,2026-04-30
V2J73,GS25뉴대전홍도점,대전,동구,36.3499360693839,127.427940575696,2026-04-30,2026-04-30
V2J89,GS25충주금가점,충북,충주시,37.0501403031912,127.928219858175,2026-04-30,2026-04-30
V2J92,GS25선유도타워점,서울,영등포구,37.5364502700185,126.895208969562,2026-04-30,2026-04-30
V2J93,GS25가양메르디앙점,서울,강서구,37.5598389268508,126.857060413285,2026-04-30,2026-04-30
V2J96,GS25뉴우석대점,전북,완주군,35.9149459380111,127.068317527982,2026-04-30,2026-04-30
V2K23,GS25의정캐슬1단지점,경기,의정부시,37.728704342144,127.038555498282,2026-04-30,2026-04-30
V2K24,GS25음성금일로점,충북,음성군,37.0119680170136,127.524186264736,2026-04-30,2026-04-30
V2K25,GS25테라스타워점,경기,화성시,37.0868672838235,126.909667571486,2026-04-30,2026-04-30
V2K27,GS25관악탑점,서울,관악구,37.4732642673296,126.975796875885,2026-04-30,2026-04-30
V2K28,GS25관악녹두점,서울,관악구,37.4708882596006,126.934282921921,2026-04-30,2026-04-30
V2K29,GS25경남대고운관점,경남,창원시,35.1802187543779,128.554576310253,2026-04-30,2026-04-30
V2K38,GS25광운월계점,서울,노원구,37.6177906596537,127.060225595101,2026-04-30,2026-04-30
V2K43,GS25팽성남산,경기,평택시,36.945739849841,127.053432343126,2026-04-30,2026-04-30
V2K45,GS25정읍시기점,전북,정읍시,35.5553910865381,126.861191773027,2026-04-30,2026-04-30
V2K46,GS25논산폴리텍점,충남,논산시,36.1463612641122,127.022344408566,2026-04-30,2026-04-30
V2K47,GS25광양제품부두점,전남,광양시,34.9091066361832,127.728487395576,2026-04-30,2026-04-30
V2K64,GS25주안보보점,인천,미추홀구,37.4586690686875,126.687652164177,2026-04-30,2026-04-30
V2K65,GS25평택계양로점,경기,평택시,36.9494391390918,127.011900489968,2026-04-30,2026-04-30
V2K67,GS25용산삼각지점,서울,용산구,37.5341501723611,126.973936254193,2026-04-30,2026-04-30
V2K92,GS25청라휴먼점,인천,서구,37.5287908153079,126.644859816027,2026-04-30,2026-04-30
V2K95,GS25광주대중점,광주,동구,35.1528654850951,126.916527978083,2026-04-30,2026-04-30
V2M25,GS25중동원룸점,대구,수성구,35.8490226755316,128.615589981449,2026-04-30,2026-04-30
V2M28,GS25묵동제일점,서울,중랑구,37.6053642574921,127.077245472039,2026-04-30,2026-04-30
V2M46,GS25북창중앙점,서울,중구,37.5637604030912,126.977277455261,2026-04-30,2026-04-30
V2M52,GS25판교지식센터점,경기,성남시,37.4115738989718,127.094761427102,2026-04-30,2026-04-30
V2M54,GS25상도건영점,서울,동작구,37.5072017622323,126.949523193639,2026-04-30,2026-04-30
V2M57,GS25의정중앙초교점,경기,의정부시,37.7452558132011,127.046295845735,2026-04-30,2026-04-30
V2M59,GS25송탄등기소점,경기,평택시,37.0656743087985,127.062898724793,2026-04-30,2026-04-30
V2M62,GS25대방경남점,서울,동작구,37.5118808213589,126.926733320578,2026-04-30,2026-04-30
V2M63,GS25노원웰빙점,서울,노원구,37.6569988704955,127.061874346353,2026-04-30,2026-04-30
V2M75,GS25중앙한가온점,서울,관악구,37.4854255028558,126.950777601524,2026-04-30,2026-04-30
V2M84,GS25청주그랜드점,충북,청주시,36.6654869880066,127.494763995003,2026-04-30,2026-04-30
V2M94,GS25대구안지랑점,대구,남구,35.8368199207897,128.575425582156,2026-04-30,2026-04-30
V2M99,GS25광주양산점,광주,북구,35.2111930570188,126.878731071149,2026-04-30,2026-04-30
V2N27,GS25제주메종글래드호텔점,제주,제주시,33.4848687148709,126.488559421798,2026-04-30,2026-04-30
V2N33,GS25화원명곡점,대구,달성군,35.7996474356555,128.494998712632,2026-04-30,2026-04-30
V2N34,GS25마곡비즈점,서울,강서구,37.5686702581913,126.826837661512,2026-04-30,2026-04-30
V2N44,GS25배곧유엔점,경기,시흥시,37.3660286060934,126.726847253936,2026-04-30,2026-04-30
V2N47,GS25부천심곡산우물점,경기,부천시,37.4865127372909,126.773439984908,2026-04-30,2026-04-30
V2N52,GS25천안서북구청점,충남,천안시,36.8778331313937,127.156997099496,2026-04-30,2026-04-30
V2N54,GS25사천평화점,경남,사천시,35.0809671799847,128.089608235326,2026-04-30,2026-04-30
V2N57,GS25일산문화점,경기,고양시,37.6599520265386,126.770946431925,2026-04-30,2026-04-30
V2N58,GS25부산터널점,부산,중구,35.1122526396178,129.032603405144,2026-04-30,2026-04-30
V2N59,GS25부산메리놀병원점,부산,중구,35.1072333037314,129.03243031136,2026-04-30,2026-04-30
V2N65,GS25금광사랑점,경기,성남시,37.447878241015,127.159558866103,2026-04-30,2026-04-30
V2N67,GS25팽성두리점,경기,평택시,36.9696261513231,127.06331204076,2026-04-30,2026-04-30
V2N73,GS25삼척이편한점,강원,삼척시,37.4516894260875,129.170321769598,2026-04-30,2026-04-30
V2N74,GS25정평센타점,경북,경산시,35.8361587143965,128.72557048296,2026-04-30,2026-04-30
V2N84,GS25방이센트럴점,서울,송파구,37.5102212064586,127.117236240207,2026-04-30,2026-04-30
V2N87,GS25고덕행복점,경기,평택시,37.0388893181706,127.046591095338,2026-04-30,2026-04-30
V2N92,GS25미아가온,서울,강북구,37.6266807615279,127.014492921584,2026-04-30,2026-04-30
V2N95,GS25성신사랑점,서울,성북구,37.5925762971266,127.018803549773,2026-04-30,2026-04-30
V2P22,GS25기흥민속마을점,경기,용인시,37.2523926543865,127.120496629311,2026-04-30,2026-04-30
V2P25,GS25원주귀래점,강원,원주시,37.1703847707215,127.88675920663,2026-04-30,2026-04-30
V2P26,GS25송탄모곡점,경기,평택시,37.0297726961612,127.073140167806,2026-04-30,2026-04-30
V2P28,GS25거제현대홈타운점,부산,연제구,35.1941210287775,129.070546000858,2026-04-30,2026-04-30
V2P29,GS25장안대평로점,경기,수원시,37.3008786882651,126.99129941192,2026-04-30,2026-04-30
V2P36,GS25옥련서해점,인천,연수구,37.4231109689297,126.652097412463,2026-04-30,2026-04-30
V2P37,GS25설봉호수점,경기,이천시,37.2788294301322,127.435584463534,2026-04-30,2026-04-30
V2P42,GS25동해아람채점,강원,동해시,37.5483625071347,129.101035934862,2026-04-30,2026-04-30
V2P43,GS25강남세곡점,서울,강남구,37.4746065827769,127.109401397788,2026-04-30,2026-04-30
V2P44,GS25녹양힐스테이트점,경기,의정부시,37.7543395852386,127.039813076878,2026-04-30,2026-04-30
V2P47,GS25대부상동점,경기,안산시,37.2414562296939,126.584558122353,2026-04-30,2026-04-30
V2P56,GS25평택이화점,경기,평택시,36.9957679517242,127.11142393021,2026-04-30,2026-04-30
V2P58,GS25고대타운점,서울,성북구,37.585359914428,127.029835665354,2026-04-30,2026-04-30
V2P64,GS25뉴화양타운점,서울,광진구,37.5453754297299,127.06842189732,2026-04-30,2026-04-30
V2P65,GS25사상문화점,부산,사상구,35.1619716171821,128.978646359274,2026-04-30,2026-04-30
V2P67,GS25영종운중로점,인천,중구,37.4934467928988,126.538455402518,2026-04-30,2026-04-30
V2P72,GS25당진송산점,충남,당진시,36.9290769613144,126.682298441151,2026-04-30,2026-04-30
V2P77,GS25S이수역점,서울,동작구,37.485207252743,126.981479949416,2026-04-30,2026-04-30
V2P86,GS25여주강천점,경기,여주시,37.2721018824682,127.713288436978,2026-04-30,2026-04-30
V2P87,GS25여수예술랜드점,전남,여수시,34.6945484380671,127.776404099016,2026-04-30,2026-04-30
V2P88,GS25여수동성점,전남,여수시,34.7526859385281,127.743797614134,2026-04-30,2026-04-30
V2P89,GS25운정8단지점,경기,파주시,37.7086314675182,126.75698825407,2026-04-30,2026-04-30
V2P97,GS25대전관저점,대전,서구,36.3000333677568,127.34022234328,2026-04-30,2026-04-30
V2Q28,GS25논현꿈에그린점,인천,남동구,37.3945240553338,126.727246806451,2026-04-30,2026-04-30
V2Q37,GS25포항죽도중흥점,경북,포항시,36.0208764061105,129.352550327146,2026-04-30,2026-04-30
V2Q38,GS25S상현역점,경기,용인시,37.2984186908297,127.069497914649,2026-04-30,2026-04-30
V2Q39,GS25부개주공점,인천,부평구,37.503305952842,126.738976052836,2026-04-30,2026-04-30
V2Q44,GS25태평중앙점,대전,중구,36.324858176938,127.397494904361,2026-04-30,2026-04-30
V2Q46,GS25문막세오름점,강원,원주시,37.3306637869305,127.829805799642,2026-04-30,2026-04-30
V2Q47,GS25논공남리점,대구,달성군,35.7285775728489,128.43916521908,2026-04-30,2026-04-30
V2Q48,GS25대구복현태왕점,대구,북구,35.8999650705217,128.620881481074,2026-04-30,2026-04-30
V2Q59,GS25수곡매봉마을점,충북,청주시,36.6198571359561,127.47557434718,2026-04-30,2026-04-30
V2Q64,GS25한화리조트대천점,충남,보령시,36.3049919582326,126.519720646353,2026-04-30,2026-04-30
V2Q66,GS25창원웅남가람점,경남,창원시,35.2096365531936,128.651242569084,2026-04-30,2026-04-30
V2Q72,GS25쌍문신원점,서울,도봉구,37.6582274548626,127.03541770846,2026-04-30,2026-04-30
V2Q76,GS25우만빌리지점,경기,수원시,37.2793122032897,127.040808625478,2026-04-30,2026-04-30
V2Q82,GS25조대공대점,광주,동구,35.141179788172,126.924221491647,2026-04-30,2026-04-30
V2Q84,GS25고암주공점,충북,제천시,37.1580369981741,128.21587395026,2026-04-30,2026-04-30
V2Q86,GS25동해이도점,강원,동해시,37.4794241944978,129.112504553349,2026-04-30,2026-04-30
V2Q92,GS25망우중앙점,서울,중랑구,37.5995858602443,127.097905025378,2026-04-30,2026-04-30
V2Q95,GS25에코중앙점,전북,전주시,35.8797567463686,127.134336039756,2026-04-30,2026-04-30
V2Q97,GS25죽전탄천점,경기,용인시,37.3338381976001,127.113884556863,2026-04-30,2026-04-30
V2R22,GS25장안칸점,경기,수원시,37.3137999255184,126.982835061664,2026-04-30,2026-04-30
V2R26,GS25이수중앙점,서울,동작구,37.4856406348635,126.980535561796,2026-04-30,2026-04-30
V2R28,GS25수원종은점,경기,수원시,37.2735184531331,127.004766292785,2026-04-30,2026-04-30
V2R32,GS25마산구암시장점,경남,창원시,35.2480807125918,128.591938394899,2026-04-30,2026-04-30
V2R34,GS25파주금곡점,경기,파주시,37.8867270790371,126.877895079979,2026-04-30,2026-04-30
V2R43,GS25금산신대점,충남,금산군,36.1022029615337,127.500483662976,2026-04-30,2026-04-30
V2R44,GS25문정아이파크점,서울,송파구,37.4825950915334,127.122140210177,2026-04-30,2026-04-30
V2R45,GS25판교삼평점,경기,성남시,37.4069569510642,127.115770308705,2026-04-30,2026-04-30
V2R46,GS25옥수상떼뷰점,서울,성동구,37.5406085140913,127.011766720242,2026-04-30,2026-04-30
V2R52,GS25경산이안점,경북,경산시,35.8753328927419,128.804234342029,2026-04-30,2026-04-30
V2R54,GS25광혜원행복점,충북,진천군,36.9867544735445,127.44333848074,2026-04-30,2026-04-30
V2R56,GS25중동복사골점,경기,부천시,37.4942844631049,126.766968983379,2026-04-30,2026-04-30
V2R59,GS25상도스카이점,서울,동작구,37.4959190016626,126.936234785835,2026-04-30,2026-04-30
V2R62,GS25현석신수로점,서울,마포구,37.5444866784162,126.93438035247,2026-04-30,2026-04-30
V2R65,GS25삼척옥원점,강원,삼척시,37.1909471570066,129.330686927236,2026-04-30,2026-04-30
V2R66,GS25기흥해링턴가점,경기,용인시,37.2639303368083,127.097002457106,2026-04-30,2026-04-30
V2R68,GS25남제천IC점,충북,제천시,37.0992494772466,128.198718266107,2026-04-30,2026-04-30
V2R69,GS25원앙베스트점,대전,서구,36.3093987924179,127.338840777537,2026-04-30,2026-04-30
V2R74,GS25정릉중앙점,서울,성북구,37.6081473189751,127.010286086081,2026-04-30,2026-04-30
V2R76,GS25분당서현CGV점,경기,성남시,37.3870380353044,127.122350399829,2026-04-30,2026-04-30
V2R78,GS25원주비발디점,강원,원주시,37.36201632303,127.932490448876,2026-04-30,2026-04-30
V2R84,GS25잠실으뜸점,서울,송파구,37.5075653169095,127.087836807341,2026-04-30,2026-04-30
V2R92,GS25부천반달동아점,경기,부천시,37.4928577837964,126.750369310507,2026-04-30,2026-04-30
V2R96,GS25삼문예가점,경남,김해시,35.193923986218,128.806805889473,2026-04-30,2026-04-30
V2S27,GS25조례현대점,전남,순천시,34.9577776168504,127.522988967271,2026-04-30,2026-04-30
V2S28,GS25제주동문점,제주,제주시,33.5112770642929,126.526125248776,2026-04-30,2026-04-30
V2S29,GS25김천부곡드림점,경북,김천시,36.1253933520232,128.101119759878,2026-04-30,2026-04-30
V2S35,GS25탑동하탑로점,경기,수원시,37.2691157782416,126.977662901056,2026-04-30,2026-04-30
V2S43,GS25수암르네상스점,경기,안산시,37.3622448788806,126.876496907762,2026-04-30,2026-04-30
V2S44,GS25전주에코타운점,전북,전주시,35.8731556488688,127.128848650735,2026-04-30,2026-04-30
V2S48,GS25광주금남로점,광주,동구,35.1517767511557,126.913721818797,2026-04-30,2026-04-30
V2S49,GS25갈산본점,인천,부평구,37.5197194337472,126.73024990054,2026-04-30,2026-04-30
V2S56,GS25창원중앙점,경남,창원시,35.2269744729681,128.678416766425,2026-04-30,2026-04-30
V2S65,GS25대관령점,강원,평창군,37.6661158119499,128.709899885526,2026-04-30,2026-04-30
V2S67,GS25지경중앙점,강원,철원군,38.2359425964084,127.350596330995,2026-04-30,2026-04-30
V2S69,GS25용산만리재점,서울,용산구,37.5514962409677,126.962687074638,2026-04-30,2026-04-30
V2S72,GS25문막희망점,강원,원주시,37.3070265386374,127.816975720955,2026-04-30,2026-04-30
V2S73,GS25해도센트럴점,경북,포항시,36.0195360832226,129.36977816919,2026-04-30,2026-04-30
V2S74,GS25한남샛별점,대전,대덕구,36.3509683657319,127.425192261993,2026-04-30,2026-04-30
V2S78,GS25송도이편한점,인천,연수구,37.4094866311462,126.618443425756,2026-04-30,2026-04-30
V2S82,GS25정관이지1차점,부산,기장군,35.3385946158236,129.163004095449,2026-04-30,2026-04-30
V2S83,GS25신설중앙점,서울,동대문구,37.5754932410674,127.025423790021,2026-04-30,2026-04-30
V2S87,GS25유강중앙점,경북,포항시,36.0044423336461,129.317363802706,2026-04-30,2026-04-30
V2S88,GS25하단낙동점,부산,사하구,35.1070349423947,128.963552855851,2026-04-30,2026-04-30
V2S99,GS25원주태장대흥점,강원,원주시,37.3803174730062,127.950349632251,2026-04-30,2026-04-30
V2T25,GS25송정유보라점,울산,북구,35.6031592339835,129.365937608578,2026-04-30,2026-04-30
V2T26,GS25노원역점,서울,노원구,37.6560265537639,127.063110552128,2026-04-30,2026-04-30
V2T28,GS25남가좌에코점,서울,서대문구,37.5767789265547,126.920369561359,2026-04-30,2026-04-30
V2T38,GS25대동휴먼시아점,대전,동구,36.326682791435,127.443046130141,2026-04-30,2026-04-30
V2T39,GS25기장캐스빌점,부산,기장군,35.2380724926258,129.210048841251,2026-04-30,2026-04-30
V2T43,GS25구로미주점,서울,구로구,37.4992573438589,126.890622073363,2026-04-30,2026-04-30
V2T48,GS25김해시청상류점,경남,김해시,35.2284509926018,128.887375793548,2026-04-30,2026-04-30
V2T62,GS25창원성원점,경남,창원시,35.2221006781207,128.67629997926,2026-04-30,2026-04-30
V2T64,GS25구의스타일점,서울,광진구,37.5392316579588,127.090597492318,2026-04-30,2026-04-30
V2T65,GS25파주유승점,경기,파주시,37.7751219315656,126.698224878584,2026-04-30,2026-04-30
V2T69,GS25동탄한빛길점,경기,화성시,37.2097895881169,127.067532586425,2026-04-30,2026-04-30
V2T74,GS25연수희망점,인천,연수구,37.4078386911268,126.672047273876,2026-04-30,2026-04-30
V2T75,GS25운서신영점,인천,중구,37.4922650942051,126.492421560356,2026-04-30,2026-04-30
V2T76,GS25신월은하점,서울,양천구,37.5388228589208,126.830857921086,2026-04-30,2026-04-30
V2T77,GS25대전만년점,대전,서구,36.3677177252445,127.382567098493,2026-04-30,2026-04-30
V2T78,GS25송도더샵점,인천,연수구,37.3984785055066,126.647523798251,2026-04-30,2026-04-30
V2T84,GS25정왕스틸랜드점,경기,시흥시,37.3445541693747,126.700089542859,2026-04-30,2026-04-30
V2T97,GS25S동천역점,경기,용인시,37.3381616688291,127.102875790343,2026-04-30,2026-04-30
V2T98,GS25원광대1호점,전북,익산시,35.9606554706951,126.963285495906,2026-04-30,2026-04-30
V2U23,GS25원주경동원룸점,강원,원주시,37.2664726673121,127.798097390066,2026-04-30,2026-04-30
V2U28,GS25하양공단점,경북,경산시,35.9331215731638,128.827184307363,2026-04-30,2026-04-30
V2U33,GS25단양사인암점,충북,단양군,36.9033635497051,128.347011335729,2026-04-30,2026-04-30
V2U34,GS25온산공단점,울산,울주군,35.4385732297891,129.334392616124,2026-04-30,2026-04-30
V2U35,GS25중부대건원관점,충남,금산군,36.190680719131,127.446721188856,2026-04-30,2026-04-30
V2U45,GS25신부스카이점,충남,천안시,36.8179682204792,127.153079923008,2026-04-30,2026-04-30
V2U47,GS25상계제일점,서울,노원구,37.669728556409,127.059367948271,2026-04-30,2026-04-30
V2U49,GS25미아월드,서울,강북구,37.6211989085158,127.02274394287,2026-04-30,2026-04-30
V2U52,GS25단대푸르지오점,경기,성남시,37.4514593332445,127.157563556281,2026-04-30,2026-04-30
V2U53,GS25옥길호반점,경기,부천시,37.4624042291096,126.811723434934,2026-04-30,2026-04-30
V2U55,GS25성남성일점,경기,성남시,37.4354625383261,127.147109331171,2026-04-30,2026-04-30
V2U57,GS25압구정유림점,서울,강남구,37.5232872292339,127.027697490535,2026-04-30,2026-04-30
V2U58,GS25공도부영점,경기,안성시,37.0059619121802,127.18333982437,2026-04-30,2026-04-30
V2U64,GS25음성IC점,충북,음성군,36.9796044937182,127.466113547505,2026-04-30,2026-04-30
V2U65,GS25진평타운점,경북,구미시,36.0940460899309,128.426759427531,2026-04-30,2026-04-30
V2U67,GS25S8몽촌토성역점,서울,송파구,37.5176280903547,127.112443207339,2026-04-30,2026-04-30
V2U69,GS25제주구남점,제주,제주시,33.4858217255407,126.535691010643,2026-04-30,2026-04-30
V2U77,GS25가양테크노점,서울,강서구,37.5594791722826,126.855266276163,2026-04-30,2026-04-30
V2U85,GS25낙안캐슬점,전남,순천시,34.9044434797995,127.343894887081,2026-04-30,2026-04-30
V2U86,GS25군산공단로점,전북,군산시,35.9719521995942,126.650576036473,2026-04-30,2026-04-30
V2U92,GS25목포평화광장점,전남,목포시,34.7976528644832,126.433310095479,2026-04-30,2026-04-30
V2U93,GS25성내호원점,서울,강동구,37.5275766805519,127.13076705694,2026-04-30,2026-04-30
V2U94,GS25진해남문W점,경남,창원시,35.1048838526946,128.751947355657,2026-04-30,2026-04-30
V2U96,GS25조암서로점,경기,화성시,37.0849800337348,126.816104610474,2026-04-30,2026-04-30
V2U97,GS25다대포현대점,부산,사하구,35.0603154002774,128.978087707922,2026-04-30,2026-04-30
V2V22,GS25만수1동점,인천,남동구,37.454025072589,126.733609373582,2026-04-30,2026-04-30
V2V25,GS25금천은하수점,서울,금천구,37.461195877861,126.899175613036,2026-04-30,2026-04-30
V2V27,GS25군산우리점,전북,군산시,35.9669897063722,126.676802168178,2026-04-30,2026-04-30
V2V29,GS25잠실우성점,서울,송파구,37.502498814238,127.084007714078,2026-04-30,2026-04-30
V2V39,GS25지에스본점,서울,강남구,37.5018821937838,127.035891648772,2026-04-30,2026-04-30
V2V45,GS25연천로점,경기,연천군,38.1022261932532,127.075259253614,2026-04-30,2026-04-30
V2V55,GS25의정그린빌점,경기,의정부시,37.7496897101284,127.063282978726,2026-04-30,2026-04-30
V2V58,GS25중화지구점,서울,중랑구,37.5996942798469,127.074631446232,2026-04-30,2026-04-30
V2V65,GS25서귀도순점,제주,서귀포시,33.2524571210999,126.473704902707,2026-04-30,2026-04-30
V2V68,GS25제주협재점,제주,제주시,33.3929735755053,126.240244228423,2026-04-30,2026-04-30
V2V72,GS25삼산원룸점,울산,남구,35.533587912906,129.341876152518,2026-04-30,2026-04-30
V2V78,GS25미금타운점,경기,성남시,37.3485592909611,127.111127147694,2026-04-30,2026-04-30
V2V84,GS25웅천한화점,전남,여수시,34.7400383545392,127.678999131162,2026-04-30,2026-04-30
V2V88,GS25미사퀸즈파크2점,경기,하남시,37.5625837913471,127.194552006717,2026-04-30,2026-04-30
V2V89,GS25보령한성필점,충남,보령시,36.3502960820741,126.615440369046,2026-04-30,2026-04-30
V2V95,GS25시흥무지개점,경기,시흥시,37.4420541020389,126.782911962954,2026-04-30,2026-04-30
V2V96,GS25능곡휴먼시아점,경기,시흥시,37.3669765531988,126.810191551564,2026-04-30,2026-04-30
V2V99,GS25행신대표점,경기,고양시,37.621709872936,126.840142708107,2026-04-30,2026-04-30
V2W23,GS25오산센터본점,경기,오산시,37.1481763554715,127.071541741467,2026-04-30,2026-04-30
V2W32,GS25금오브래뉴점,경기,의정부시,37.7460649283993,127.055033975642,2026-04-30,2026-04-30
V2W42,GS25일도신천지점,제주,제주시,33.5062496640203,126.54473192599,2026-04-30,2026-04-30
V2W44,GS25금천스타즈점,서울,금천구,37.4613294579887,126.897071182099,2026-04-30,2026-04-30
V2W45,GS25울산온덕점,울산,울주군,35.4343738236717,129.312143254529,2026-04-30,2026-04-30
V2W46,GS25신정극동점,울산,남구,35.5441371557074,129.324418477939,2026-04-30,2026-04-30
V2W48,GS25밀양얼음골점,경남,밀양시,35.5871721957762,128.953092740428,2026-04-30,2026-04-30
V2W58,GS25파주선유점,경기,파주시,37.865728874191,126.805840314503,2026-04-30,2026-04-30
V2W59,GS25연수유천점,인천,연수구,37.4227202706005,126.683014546966,2026-04-30,2026-04-30
V2W66,GS25안동송현LH점,경북,안동시,36.5740973307545,128.687510233772,2026-04-30,2026-04-30
V2W68,GS25상도장안점,서울,동작구,37.4997655617179,126.951267117617,2026-04-30,2026-04-30
V2W75,GS25사직럭키점,부산,동래구,35.1981827407015,129.06890825104,2026-04-30,2026-04-30
V2W76,GS25종로로얄점,서울,종로구,37.5751202492187,126.981186519239,2026-04-30,2026-04-30
V2W77,GS25서울대병원점,서울,종로구,37.579003798311,126.999123520051,2026-04-30,2026-04-30
V2W83,GS25성동무학교점,서울,성동구,37.5693269381339,127.030518814148,2026-04-30,2026-04-30
V2W84,GS25평촌에이스점,경기,안양시,37.3972612123618,126.961482031563,2026-04-30,2026-04-30
V2W87,GS25금촌초교점,경기,파주시,37.7605859957837,126.768433794693,2026-04-30,2026-04-30
V2W89,GS25운정미소점,경기,파주시,37.7348397304185,126.756811605065,2026-04-30,2026-04-30
V2W93,GS25성남탄천점,경기,성남시,37.4398588580045,127.121113321636,2026-04-30,2026-04-30
V2X22,GS25연희성산점,서울,서대문구,37.5665716465949,126.925474676449,2026-04-30,2026-04-30
V2X24,GS25도봉서원점,서울,도봉구,37.6743759570194,127.047882656889,2026-04-30,2026-04-30
V2X26,GS25안산골드점,경기,안산시,37.3337381287949,126.791667389615,2026-04-30,2026-04-30
V2X27,GS25초곡트리니엔점,경북,포항시,36.0968156937505,129.335562676748,2026-04-30,2026-04-30
V2X29,GS25용문수리점,경기,양평군,37.4861333948388,127.596039409612,2026-04-30,2026-04-30
V2X48,GS25무안광명점,전남,무안군,34.9891992450117,126.471992803079,2026-04-30,2026-04-30
V2X59,GS25서울숲IT점,서울,성동구,37.5474625231425,127.049881717567,2026-04-30,2026-04-30
V2X65,GS25성동서울숲점,서울,성동구,37.546499275064,127.043285020347,2026-04-30,2026-04-30
V2X67,GS25마포한우물점,서울,마포구,37.5570838323803,126.909742783944,2026-04-30,2026-04-30
V2X73,GS25고읍타운점,경기,양주시,37.7916789769183,127.08070447562,2026-04-30,2026-04-30
V2X75,GS25경포호수점,강원,강릉시,37.8042125679656,128.904875238668,2026-04-30,2026-04-30
V2X79,GS25서교미리내점,서울,마포구,37.5563126062087,126.91209682836,2026-04-30,2026-04-30
V2X83,GS25충주예성점,충북,충주시,36.9753386511387,127.935252583568,2026-04-30,2026-04-30
V2X84,GS25군포용호점,경기,군포시,37.3450829138279,126.945462657798,2026-04-30,2026-04-30
V2X89,GS25청사포점,부산,해운대구,35.1607858809576,129.192196133325,2026-04-30,2026-04-30
V2X94,GS25은평제각말점,서울,은평구,37.6374385739147,126.934506150218,2026-04-30,2026-04-30
V2X99,GS25메트로석전점,경남,창원시,35.2280630295834,128.572666458077,2026-04-30,2026-04-30
V2Y22,GS25중구번영점,울산,중구,35.5631702060439,129.333633546415,2026-04-30,2026-04-30
V2Y28,GS25화순산이고운점,전남,화순군,35.0528174093884,126.981964698649,2026-04-30,2026-04-30
V2Y29,GS25중리타운점,경북,칠곡군,36.0739724347897,128.411851279632,2026-04-30,2026-04-30
V2Y33,GS25동탄신리천점,경기,화성시,37.1846346485032,127.103104114255,2026-04-30,2026-04-30
V2Y39,GS25문정현대A동점,서울,송파구,37.4853124096879,127.117981249565,2026-04-30,2026-04-30
V2Y43,GS25면목행복점,서울,중랑구,37.5834314507273,127.091023292302,2026-04-30,2026-04-30
V2Y44,GS25대구동산병원점,대구,중구,35.8697181743472,128.582917137058,2026-04-30,2026-04-30
V2Y45,GS25양주서희점,경기,양주시,37.8484326455921,127.063400533881,2026-04-30,2026-04-30
V2Y46,GS25옥포화인점,대구,달성군,35.7822071015627,128.441783860158,2026-04-30,2026-04-30
V2Y47,GS25두정푸르지오점,충남,천안시,36.8349202877199,127.129496070253,2026-04-30,2026-04-30
V2Y48,GS25성환로얄점,충남,천안시,36.9200899594963,127.135881819649,2026-04-30,2026-04-30
V2Y49,GS25옥산센타점,경북,경산시,35.8270985289711,128.725886280365,2026-04-30,2026-04-30
V2Y55,GS25세교행복로점,경기,오산시,37.1472438565802,127.059542057895,2026-04-30,2026-04-30
V2Y64,GS25상암타운점,서울,마포구,37.5773548643301,126.895907546571,2026-04-30,2026-04-30
V2Y65,GS25광명오리로점,경기,광명시,37.4332523850851,126.879776646831,2026-04-30,2026-04-30
V2Y75,GS25부산대생환대점,부산,금정구,35.2334583230338,129.077545014303,2026-04-30,2026-04-30
V2Y82,GS25풍무드림점,경기,김포시,37.6116411999286,126.731884215971,2026-04-30,2026-04-30
V2Y84,GS25구미구평사랑점,경북,구미시,36.090879635565,128.435059627093,2026-04-30,2026-04-30
V2Y87,GS25수성레전드점,대구,수성구,35.8315983186912,128.710465033142,2026-04-30,2026-04-30
V2Y88,GS25구월신세계점,인천,남동구,37.4579065138815,126.720025686655,2026-04-30,2026-04-30
V2Y97,GS25여수루지점,전남,여수시,34.7481740755221,127.641549244612,2026-04-30,2026-04-30
V2Y99,GS25중구디오빌점,서울,중구,37.5550139693901,126.967222102332,2026-04-30,2026-04-30
V2Z23,GS25전농사거리점,서울,동대문구,37.5784587527277,127.057787186379,2026-04-30,2026-04-30
V2Z28,GS25능평타운점,경기,광주시,37.3486019216648,127.180800821588,2026-04-30,2026-04-30
V2Z29,GS25대구칠곡중앙점,대구,북구,35.9416084004209,128.544387092632,2026-04-30,2026-04-30
V2Z32,GS25안동타운점,경북,안동시,36.5655642980709,128.705734273289,2026-04-30,2026-04-30
V2Z43,GS25장흥코아루점,전남,장흥군,34.6839016137182,126.911730622822,2026-04-30,2026-04-30
V2Z53,GS25광주능평점,경기,광주시,37.3439448484843,127.179722704003,2026-04-30,2026-04-30
V2Z56,GS25포일대림점,경기,의왕시,37.3863124702951,126.977961711194,2026-04-30,2026-04-30
V2Z72,GS25잠원중앙점,서울,서초구,37.5139902729878,127.017026597961,2026-04-30,2026-04-30
V2Z74,GS25부산장전점,부산,금정구,35.2354183425234,129.087161973511,2026-04-30,2026-04-30
V2Z84,GS25명장삼거리점,부산,동래구,35.2061354214535,129.100784417987,2026-04-30,2026-04-30
V2Z87,GS25청주우암로점,충북,청주시,36.6536126671052,127.485054607491,2026-04-30,2026-04-30
V2Z88,GS25이천진리점,경기,이천시,37.2703165022909,127.455424943659,2026-04-30,2026-04-30
V2Z93,GS25당진합덕센터점,충남,당진시,36.8096487096538,126.766100023092,2026-04-30,2026-04-30
V2Z95,GS25홀리데이광주점,광주,서구,35.1477414357588,126.83815077792,2026-04-30,2026-04-30
V2Z96,GS25홍천신내점,강원,홍천군,37.7478667875218,127.948046587905,2026-04-30,2026-04-30
V3034,GS25간석타임점,인천,남동구,37.4641148274355,126.713397639122,2026-04-30,2026-04-30
V3063,GS25인천광장점,인천,남동구,37.4542386608679,126.704242224621,2026-04-30,2026-04-30
V3069,GS25대성리점,경기,가평군,37.6840373006189,127.378296088102,2026-04-30,2026-04-30
V3079,GS25수원다모아점,경기,수원시,37.2648882411784,127.02674059498,2026-04-30,2026-04-30
V3095,GS25강서드림점,서울,강서구,37.5405513025991,126.840765988618,2026-04-30,2026-04-30
V3108,GS25천안성지점,충남,천안시,36.7933420988798,127.129708264454,2026-04-30,2026-04-30
V3113,GS25팰리스점,서울,마포구,37.5560921851488,126.92345193521,2026-04-30,2026-04-30
V3129,GS25용인신갈점,경기,용인시,37.276720702745,127.109422830845,2026-04-30,2026-04-30
V3198,GS25대전시네마점,대전,서구,36.3399397153362,127.389302690927,2026-04-30,2026-04-30
V3206,GS25개봉중앙점,서울,구로구,37.4971780521149,126.85678231834,2026-04-30,2026-04-30
V3213,GS25중랑갤러리점,서울,중랑구,37.6169974489118,127.091295082322,2026-04-30,2026-04-30
V323,GS25부천역점,경기,부천시,37.4857333751251,126.779976955601,2026-04-30,2026-04-30
V3247,GS25남양주금곡점,경기,남양주시,37.6343334344244,127.20772680103,2026-04-30,2026-04-30
V3279,GS25인천관교점,인천,남구,37.4430627328137,126.694128582667,2026-04-30,2026-04-30
V328,GS25신도림점,서울,구로구,37.5036765102181,126.890093055509,2026-04-30,2026-04-30
V3341,GS25봉천제일점,서울,관악구,37.4805841527047,126.947430626446,2026-04-30,2026-04-30
V3345,GS25군산대점,전북,군산시,35.9451895020013,126.68675248805,2026-04-30,2026-04-30
V3351,GS25영동계산점,충북,영동군,36.1730807313657,127.781232126041,2026-04-30,2026-04-30
V3355,GS25두정메트로점,충남,천안시,36.8265634984849,127.141495351977,2026-04-30,2026-04-30
V3383,GS25이천중리점,경기,이천시,37.276386174237,127.448739577542,2026-04-30,2026-04-30
V3386,GS25천안두정점,충남,천안시,36.8279732656973,127.143295641396,2026-04-30,2026-04-30
V3388,GS25구월시티점,인천,남동구,37.4512269224836,126.704034184028,2026-04-30,2026-04-30
V3414,GS252테크노파크점,경기,부천시,37.5182740282527,126.763905112213,2026-04-30,2026-04-30
V3427,GS25파주광탄점,경기,파주시,37.7814939506029,126.847370649356,2026-04-30,2026-04-30
V343,GS25노원구점,서울,노원구,37.6545604552897,127.058901731816,2026-04-30,2026-04-30
V3438,GS25문래센터점,서울,영등포구,37.5121032788591,126.897049292032,2026-04-30,2026-04-30
V3461,GS25망원희망점,서울,마포구,37.5543295640133,126.902267925811,2026-04-30,2026-04-30
V347,GS25비산1점,경기,안양시,37.4051531729344,126.950089314329,2026-04-30,2026-04-30
V3470,GS25서초예전점,서울,서초구,37.4835679328775,127.012370485768,2026-04-30,2026-04-30
V3480,GS25포스빌점,서울,구로구,37.5056645834146,126.891669721663,2026-04-30,2026-04-30
V3487,GS25관악한일점,서울,관악구,37.4739789845877,126.981349496882,2026-04-30,2026-04-30
V3517,GS25잠원주흥점,서울,서초구,37.5135812869533,127.018773944174,2026-04-30,2026-04-30
V3544,GS25구로영흥점,서울,구로구,37.5024418295637,126.884320685394,2026-04-30,2026-04-30
V3546,GS25분당아크로점,경기,성남시,37.3624991187812,127.107542448377,2026-04-30,2026-04-30
V3591,GS25원종중앙점,경기,부천시,37.5251892702093,126.805525323894,2026-04-30,2026-04-30
V3635,GS25남영역점,서울,용산구,37.5417235971206,126.972395499822,2026-04-30,2026-04-30
V3641,GS25천호위브점,서울,강동구,37.5394525458069,127.127087640778,2026-04-30,2026-04-30
V3649,GS25반포타운점,서울,서초구,37.5060249555396,127.021372333808,2026-04-30,2026-04-30
V3653,GS25아주대점,경기,수원시,37.278680341854,127.04401912549,2026-04-30,2026-04-30
V3663,GS25안산그린점,경기,안산시,37.3122161455838,126.838963789918,2026-04-30,2026-04-30
V3665,GS25장충동호점,서울,중구,37.5581333841559,127.008479680282,2026-04-30,2026-04-30
V3695,GS25김포프라자점,경기,김포시,37.622540120762,126.720711297533,2026-04-30,2026-04-30
V3751,GS25효성성지점,인천,계양구,37.526556106573,126.719194201531,2026-04-30,2026-04-30
V3760,GS25대전국일점,대전,중구,36.3212984613395,127.415742612669,2026-04-30,2026-04-30
V3792,GS25산본경원점,경기,군포시,37.3600290566362,126.933096168275,2026-04-30,2026-04-30
V3816,GS25이천대월점,경기,이천시,37.2443845887438,127.494644555514,2026-04-30,2026-04-30
V3823,GS25평촌타워점,경기,안양시,37.3917684012669,126.951676138419,2026-04-30,2026-04-30
V3831,GS25역삼대홍점,서울,강남구,37.4924943653112,127.039359464622,2026-04-30,2026-04-30
V3853,GS25청담중앙점,서울,강남구,37.5226394683148,127.042175216223,2026-04-30,2026-04-30
V3890,GS25매탄드림점,경기,수원시,37.2636362422691,127.046768275624,2026-04-30,2026-04-30
V3895,GS25하우스빌점,경기,성남시,37.3762029256459,127.112122587173,2026-04-30,2026-04-30
V3900,GS25신당중앙점,서울,중구,37.5575811102346,127.012471017174,2026-04-30,2026-04-30
V3922,GS25분당웰빙점,경기,성남시,37.3861814987683,127.1222813204,2026-04-30,2026-04-30
V3937,GS25성북동진점,서울,성북구,37.5950171752452,127.03621042521,2026-04-30,2026-04-30
V3953,GS25김제터미널점,전북,김제시,35.8034662676149,126.893933323901,2026-04-30,2026-04-30
V3981,GS25천안일번로점,충남,천안시,36.8501124073305,127.155574223867,2026-04-30,2026-04-30
V3987,GS25대치삼호점,서울,강남구,37.5087206692235,127.066151013408,2026-04-30,2026-04-30
V3A32,GS25울산신화점,울산,울주군,35.5472867352393,129.139898029254,2026-04-30,2026-04-30
V3A45,GS25보라매본점,서울,관악구,37.4892638733477,126.930641189778,2026-04-30,2026-04-30
V3A47,GS25신현새소망점,경기,광주시,37.3632919853578,127.163086807902,2026-04-30,2026-04-30
V3A52,GS25둔촌프라자점,서울,강동구,37.5345507407163,127.148088544602,2026-04-30,2026-04-30
V3A57,GS25양지센트럴점,경기,용인시,37.2350023793992,127.284135974021,2026-04-30,2026-04-30
V3A58,GS25안성노곡점,경기,안성시,37.1094830757641,127.245903075859,2026-04-30,2026-04-30
V3A59,GS25대구M월드점,대구,서구,35.8750522185258,128.53700873503,2026-04-30,2026-04-30
V3A63,GS25동탄목동점,경기,화성시,37.1831252440506,127.121772171985,2026-04-30,2026-04-30
V3A65,GS25외동원룸점,경남,김해시,35.2336117660077,128.859274336796,2026-04-30,2026-04-30
V3A66,GS25반월타운점,경기,화성시,37.2334341452436,127.059544198673,2026-04-30,2026-04-30
V3A74,GS25속초오복점,강원,속초시,38.1847009166814,128.598229833394,2026-04-30,2026-04-30
V3A79,GS25안중대로점,경기,평택시,36.9910440341376,126.942725358193,2026-04-30,2026-04-30
V3A82,GS25화곡미소점,서울,강서구,37.5460355730409,126.846905159843,2026-04-30,2026-04-30
V3A84,GS25정선파크로쉬점,강원,정선군,37.4750037115052,128.611271171812,2026-04-30,2026-04-30
V3A87,GS25R분당4점,경기,성남시,37.3872316964729,127.120518729646,2026-04-30,2026-04-30
V3A88,GS25신정센트럴점,울산,남구,35.5305307586245,129.317534846693,2026-04-30,2026-04-30
V3A92,GS25진주극동점,경남,진주시,35.1856261328888,128.119601965255,2026-04-30,2026-04-30
V3A97,GS25양평성원점,서울,영등포구,37.5337640790724,126.894128408059,2026-04-30,2026-04-30
V3A98,GS25진천부영점,충북,진천군,36.8732487798999,127.440560526418,2026-04-30,2026-04-30
V3B29,GS25석적장곡점,경북,칠곡군,36.0752621973603,128.419363282147,2026-04-30,2026-04-30
V3B34,GS25강남태양점,서울,강남구,37.5029707237972,127.026874886924,2026-04-30,2026-04-30
V3B36,GS25구로계영점,서울,구로구,37.4884128040054,126.886259195935,2026-04-30,2026-04-30
V3B39,GS25공주하브점,충남,공주시,36.4783145634759,127.150010956062,2026-04-30,2026-04-30
V3B42,GS25마북누리점,경기,용인시,37.2979728001496,127.108800500347,2026-04-30,2026-04-30
V3B43,GS25부여백제점,충남,부여군,36.277212381308,126.912506828811,2026-04-30,2026-04-30
V3B44,GS25포천이곡리점,경기,포천시,37.7773731136239,127.147005547486,2026-04-30,2026-04-30
V3B52,GS25삼덕중앙점,대구,중구,35.8635967709402,128.605028789324,2026-04-30,2026-04-30
V3B53,GS25봉덕중앙점,대구,남구,35.8466562014747,128.593342298522,2026-04-30,2026-04-30
V3B57,GS25하남다승점,광주,광산구,35.1771543653558,126.803019602535,2026-04-30,2026-04-30
V3B67,GS25기흥롯데점,경기,용인시,37.2715164094218,127.102786468826,2026-04-30,2026-04-30
V3B69,GS25R분당3점,경기,성남시,37.3869348694107,127.120589947286,2026-04-30,2026-04-30
V3B79,GS25향남부영점,경기,화성시,37.1121346896057,126.919567236762,2026-04-30,2026-04-30
V3B87,GS25양림주공점,광주,남구,35.1359895962239,126.916323369361,2026-04-30,2026-04-30
V3B89,GS25중랑동부점,서울,중랑구,37.6022852848317,127.093886042358,2026-04-30,2026-04-30
V3B93,GS25황골주공점,경기,수원시,37.2645547257589,127.077445347737,2026-04-30,2026-04-30
V3B94,GS25가산정교점,경기,포천시,37.8142496743427,127.181040671617,2026-04-30,2026-04-30
V3B95,GS25해남송지어란점,전남,해남군,34.3510383843082,126.473918188532,2026-04-30,2026-04-30
V3C33,GS25양평지평리점,경기,양평군,37.4772802999561,127.630605692278,2026-04-30,2026-04-30
V3C37,GS25나운우진점,전북,군산시,35.9718239696952,126.702743066299,2026-04-30,2026-04-30
V3C38,GS25대구매전로점,대구,북구,35.9104049160346,128.546344256301,2026-04-30,2026-04-30
V3C39,GS25칠곡태전센터점,대구,북구,35.9284723080919,128.549194968578,2026-04-30,2026-04-30
V3C42,GS25일죽방초점,경기,안성시,37.1138383843876,127.43091221004,2026-04-30,2026-04-30
V3C44,GS25신안행복점,광주,북구,35.1677067689722,126.898998537465,2026-04-30,2026-04-30
V3C45,GS25나주우정국점,전남,나주시,35.0231630096174,126.797694044748,2026-04-30,2026-04-30
V3C48,GS25팔탄해창리점,경기,화성시,37.1083158765283,126.871343688829,2026-04-30,2026-04-30
V3C52,GS25상록본오공원점,경기,안산시,37.2972542662074,126.869285840955,2026-04-30,2026-04-30
V3C57,GS25광주수레실점,경기,광주시,37.3500985461013,127.160320955194,2026-04-30,2026-04-30
V3C64,GS25이중섭거리점,제주,서귀포시,33.2467514341904,126.564001227558,2026-04-30,2026-04-30
V3C65,GS25석동그린점,경남,창원시,35.1552578158648,128.705160498614,2026-04-30,2026-04-30
V3C72,GS25상계으뜸점,서울,노원구,37.6549802310272,127.070954841203,2026-04-30,2026-04-30
V3C73,GS25신내행운점,서울,중랑구,37.6063461836018,127.098231238298,2026-04-30,2026-04-30
V3C74,GS25강서메디칼점,서울,강서구,37.5577836866252,126.860702259988,2026-04-30,2026-04-30
V3C76,GS25청하미남점,경북,포항시,36.1830364528317,129.342729401989,2026-04-30,2026-04-30
V3C78,GS25역삼쌍마점,서울,강남구,37.4977263880794,127.033445661738,2026-04-30,2026-04-30
V3C79,GS25우현중앙점,경북,포항시,36.0562857835496,129.364477553762,2026-04-30,2026-04-30
V3C86,GS25불로신명점,인천,서구,37.6180168276928,126.69027348782,2026-04-30,2026-04-30
V3C88,GS25익산파인골드점,전북,익산시,35.9657341904015,127.015259905703,2026-04-30,2026-04-30
V3C95,GS25원당본점,경기,고양시,37.6557683196531,126.837381115432,2026-04-30,2026-04-30
V3C96,GS25혜화대명점,서울,종로구,37.5843100279615,127.001147203031,2026-04-30,2026-04-30
V3D22,GS25뉴장유계동점,경남,김해시,35.18796132471,128.793845148674,2026-04-30,2026-04-30
V3D27,GS25R구리5점,경기,구리시,37.5978655119505,127.142793261331,2026-04-30,2026-04-30
V3D28,GS25광명휴게소점,경기,포천시,38.014250128606,127.246573036896,2026-04-30,2026-04-30
V3D33,GS25공도그랑블점,경기,안성시,37.006876171042,127.198510199087,2026-04-30,2026-04-30
V3D35,GS25효창센터포레점,서울,용산구,37.5388657513482,126.963959438484,2026-04-30,2026-04-30
V3D43,GS25대구진달래점,대구,서구,35.865810468306,128.551595922947,2026-04-30,2026-04-30
V3D48,GS25제주남녕점,제주,제주시,33.4903539514775,126.481480973309,2026-04-30,2026-04-30
V3D52,GS25현동중흥3차점,경남,창원시,35.1475775672357,128.558579555858,2026-04-30,2026-04-30
V3D55,GS25학장공단점,부산,사상구,35.148511073728,128.991149713799,2026-04-30,2026-04-30
V3D58,GS25한라대학점,제주,제주시,33.4760758835784,126.478029048129,2026-04-30,2026-04-30
V3D62,GS25제천남천점,충북,제천시,37.1353729948523,128.211059321011,2026-04-30,2026-04-30
V3D63,GS25월산중앙점,광주,남구,35.1457775294958,126.891249514332,2026-04-30,2026-04-30
V3D73,GS25봉담행복점,경기,화성시,37.2286253097718,126.951344118297,2026-04-30,2026-04-30
V3D76,GS25불당마음점,충남,천안시,36.823627018988,127.103752716281,2026-04-30,2026-04-30
V3D77,GS25성환남산점,충남,천안시,36.9149478446741,127.132640272789,2026-04-30,2026-04-30
V3D78,GS25달서강산점,대구,달서구,35.8054410933314,128.537324139313,2026-04-30,2026-04-30
V3D86,GS25울산하트점,울산,남구,35.5327214656574,129.31087770944,2026-04-30,2026-04-30
V3D93,GS25속초대우점,강원,속초시,38.1964634349991,128.573848771968,2026-04-30,2026-04-30
V3D96,GS25원미한우리점,경기,부천시,37.4946959605731,126.7928813852,2026-04-30,2026-04-30
V3D98,GS25민락월드점,경기,의정부시,37.7461449963961,127.09397579865,2026-04-30,2026-04-30
V3D99,GS25예산유익점,충남,예산군,36.6902305823856,126.83244950532,2026-04-30,2026-04-30
V3F23,GS25방화온누리점,서울,강서구,37.564178546812,126.807473174741,2026-04-30,2026-04-30
V3F25,GS25영통학사점,경기,수원시,37.2483408444609,127.07819508174,2026-04-30,2026-04-30
V3F26,GS25대구칠성로점,대구,북구,35.8802930383291,128.591633360103,2026-04-30,2026-04-30
V3F27,GS25R영등포6점,서울,영등포구,37.518189013897,126.907152130935,2026-04-30,2026-04-30
V3F28,GS25R영등포4점,서울,영등포구,37.518189013897,126.907152130935,2026-04-30,2026-04-30
V3F37,GS25야탑시그마점,경기,성남시,37.4135108572032,127.129565664884,2026-04-30,2026-04-30
V3F38,GS25한경대기숙사점,경기,안성시,37.0127202017307,127.261859973444,2026-04-30,2026-04-30
V3F44,GS25광교센트럴점,경기,수원시,37.2867848437152,127.055724402624,2026-04-30,2026-04-30
V3F48,GS25포승평택항로점,경기,평택시,36.9943498646755,126.846661726264,2026-04-30,2026-04-30
V3F49,GS25시흥망고점,경기,시흥시,37.414241546957,126.815149845819,2026-04-30,2026-04-30
V3F55,GS25의정리빙점,경기,의정부시,37.7346249069081,127.04420837417,2026-04-30,2026-04-30
V3F59,GS25제주세화해변점,제주,제주시,33.5247411226186,126.859095014799,2026-04-30,2026-04-30
V3F63,GS25순천신대점,전남,순천시,34.9395381386347,127.548272806294,2026-04-30,2026-04-30
V3F74,GS25기산뷰파크점,경기,화성시,37.2159217743575,127.054466319012,2026-04-30,2026-04-30
V3F77,GS25용인목련점,경기,용인시,37.2684251758411,127.222687137321,2026-04-30,2026-04-30
V3F89,GS25역삼블루점,서울,강남구,37.4932920900206,127.038840375919,2026-04-30,2026-04-30
V3F95,GS25예천지보점,경북,예천군,36.5445963889871,128.387212163323,2026-04-30,2026-04-30
V3F99,GS25의정신도드림점,경기,의정부시,37.7403481873925,127.085377924096,2026-04-30,2026-04-30
V3G35,GS25관저스타점,대전,서구,36.3062202712164,127.336106082369,2026-04-30,2026-04-30
V3G43,GS25가경하나점,충북,청주시,36.6229881888528,127.433011689374,2026-04-30,2026-04-30
V3G45,GS25울진북면점,경북,울진군,37.1038342699061,129.374587256081,2026-04-30,2026-04-30
V3G53,GS25S9석촌역점,서울,송파구,37.5055832146404,127.106760701549,2026-04-30,2026-04-30
V3G54,GS25영월청령포점,강원,영월군,37.1851861389335,128.456886397641,2026-04-30,2026-04-30
V3G55,GS25광주보건대점,광주,광산구,35.1934965584464,126.848656703818,2026-04-30,2026-04-30
V3G59,GS25부산진구연지점,부산,부산진구,35.1718484858965,129.057135195377,2026-04-30,2026-04-30
V3G65,GS25화도먹갓로점,경기,남양주시,37.658837139471,127.274336358,2026-04-30,2026-04-30
V3G66,GS25군포삼익점,경기,군포시,37.352771489165,126.93265696704,2026-04-30,2026-04-30
V3G74,GS25안동한일점,경남,김해시,35.2398993386873,128.913902599621,2026-04-30,2026-04-30
V3G76,GS25쌍령이레타워점,경기,광주시,37.4017204399326,127.271792034448,2026-04-30,2026-04-30
V3G78,GS25해남교육청점,전남,해남군,34.5678961289644,126.607503007183,2026-04-30,2026-04-30
V3G83,GS25동구과학로점,대구,동구,35.8817305238895,128.716373428069,2026-04-30,2026-04-30
V3G85,GS25다산라페온빌점,경기,남양주시,37.6232795460865,127.153422499266,2026-04-30,2026-04-30
V3G87,GS25포항득량점,경북,포항시,36.0307057691679,129.339193325508,2026-04-30,2026-04-30
V3G93,GS25정왕타운점,경기,시흥시,37.3456961414796,126.747527820951,2026-04-30,2026-04-30
V3G98,GS25신평장원점,충남,당진시,36.8805370838808,126.754518399968,2026-04-30,2026-04-30
V3H22,GS25부산사직점,부산,동래구,35.19679911832,129.060204069484,2026-04-30,2026-04-30
V3H34,GS25노형부영점,제주,제주시,33.4769846841625,126.484511213022,2026-04-30,2026-04-30
V3H42,GS25창원병원점,경남,창원시,35.2184231147686,128.671414316013,2026-04-30,2026-04-30
V3H46,GS25감곡오향점,충북,음성군,37.1122924925812,127.642449885056,2026-04-30,2026-04-30
V3H47,GS25신흥스타점,인천,중구,37.4642319595774,126.633070699462,2026-04-30,2026-04-30
V3H48,GS25소사해링턴점,경기,평택시,36.988577038029,127.13095259495,2026-04-30,2026-04-30
V3H52,GS25방이대성점,서울,송파구,37.5090224532685,127.11598350173,2026-04-30,2026-04-30
V3H56,GS25효성병원점,충북,청주시,36.6239603249029,127.495023197235,2026-04-30,2026-04-30
V3H62,GS25조암동로점,경기,화성시,37.0876376555157,126.822384577845,2026-04-30,2026-04-30
V3H63,GS25상봉써너스점,서울,중랑구,37.597247696848,127.093788501889,2026-04-30,2026-04-30
V3H65,GS25춘천그린점,강원,춘천시,37.8713248151462,127.732009853957,2026-04-30,2026-04-30
V3H67,GS25행신현대점,경기,고양시,37.624001544764,126.829492654784,2026-04-30,2026-04-30
V3H69,GS25제주블룸호텔점,제주,서귀포시,33.2498065310201,126.408210150351,2026-04-30,2026-04-30
V3H77,GS25S6석계역점,서울,노원구,37.6152751849469,127.066849551951,2026-04-30,2026-04-30
V3H82,GS25일원스타점,서울,강남구,37.4912469150835,127.08780882482,2026-04-30,2026-04-30
V3H84,GS25김천천년나무점,경북,김천시,36.1210808921744,128.192096646205,2026-04-30,2026-04-30
V3H86,GS25등촌NC점,서울,강서구,37.5614479967117,126.84002386491,2026-04-30,2026-04-30
V3H87,GS25안동안기점,경북,안동시,36.5731609102031,128.719378882279,2026-04-30,2026-04-30
V3H88,GS25대구경대로점,대구,북구,35.8853315482164,128.609591530344,2026-04-30,2026-04-30
V3H93,GS25R인천연수6점,인천,연수구,37.4170705016646,126.678142828589,2026-04-30,2026-04-30
V3H95,GS25애월모닝시티점,제주,제주시,33.486344483998,126.414670217953,2026-04-30,2026-04-30
V3H96,GS25간석로얄점,인천,남동구,37.4655957528451,126.712038405769,2026-04-30,2026-04-30
V3H97,GS25부경감만점,부산,남구,35.1143949699006,129.087502458373,2026-04-30,2026-04-30
V3H98,GS25해남스위트점,전남,해남군,34.5664841061637,126.603047839955,2026-04-30,2026-04-30
V3H99,GS25광양이편한점,전남,광양시,34.9758478190859,127.575476169506,2026-04-30,2026-04-30
V3J33,GS25청주상당로점,충북,청주시,36.6410413801288,127.48728520612,2026-04-30,2026-04-30
V3J35,GS25어연산단점,경기,평택시,37.0504511259173,126.974157484452,2026-04-30,2026-04-30
V3J39,GS25청북휴게소점,경기,평택시,37.0222582633719,126.942653152839,2026-04-30,2026-04-30
V3J42,GS25광주대호심관점,광주,남구,35.1056905097549,126.894972909811,2026-04-30,2026-04-30
V3J45,GS25새만금비전점,전북,군산시,35.9460718010663,126.563046781059,2026-04-30,2026-04-30
V3J46,GS25하신번영로점,부산,사하구,35.102202033785,128.958044556619,2026-04-30,2026-04-30
V3J52,GS25S강남역2호점,서울,강남구,37.4970525443533,127.028184276407,2026-04-30,2026-04-30
V3J55,GS25죽곡한신점,대구,달성군,35.8524542696874,128.464051302199,2026-04-30,2026-04-30
V3J56,GS25논현은선점,서울,강남구,37.5155631073058,127.040681864981,2026-04-30,2026-04-30
V3J64,GS25옥길스타필드점,경기,부천시,37.4621617356283,126.81269938346,2026-04-30,2026-04-30
V3J66,GS25대전구봉점,대전,서구,36.3002397257332,127.328696809177,2026-04-30,2026-04-30
V3J68,GS25삼산제일점,울산,남구,35.5374946909629,129.335016353489,2026-04-30,2026-04-30
V3J69,GS25안락뜨란채점,부산,동래구,35.1937499362972,129.108731772419,2026-04-30,2026-04-30
V3J75,GS25대가대기숙사점,경북,경산시,35.9087151731749,128.807231536905,2026-04-30,2026-04-30
V3J78,GS25염창행복점,서울,강서구,37.5488142693977,126.876274755529,2026-04-30,2026-04-30
V3J79,GS25동탄테크노점,경기,화성시,37.210070422862,127.096843786655,2026-04-30,2026-04-30
V3J85,GS25송도스마트밸리점,인천,연수구,37.3666094442769,126.64837775045,2026-04-30,2026-04-30
V3J86,GS25가평신상리점,경기,가평군,37.8464256742388,127.355497177446,2026-04-30,2026-04-30
V3J88,GS25하남대명점,경기,하남시,37.5409908501392,127.220923708905,2026-04-30,2026-04-30
V3J92,GS25쌍용아이파크점,충남,천안시,36.7914041361767,127.123500381186,2026-04-30,2026-04-30
V3J93,GS25두정역길점,충남,천안시,36.8357070548648,127.146057158733,2026-04-30,2026-04-30
V3J94,GS25대구용산중앙점,대구,달서구,35.8579807738059,128.528976786932,2026-04-30,2026-04-30
V3J95,GS25대구보건대점,대구,북구,35.9280482543195,128.543363020162,2026-04-30,2026-04-30
V3J97,GS25성건중앙점,경북,경주시,35.8531627579833,129.209893024126,2026-04-30,2026-04-30
V3K25,GS25김해힐스테이트점,경남,김해시,35.1777311398517,128.810027039912,2026-04-30,2026-04-30
V3K27,GS25G은현IC점,경기,양주시,37.8814451067539,127.036530596241,2026-04-30,2026-04-30
V3K33,GS25구의미가로점,서울,광진구,37.5389166801908,127.084807772262,2026-04-30,2026-04-30
V3K42,GS25을지스타파크점,서울,중구,37.56657111167,127.003591122558,2026-04-30,2026-04-30
V3K48,GS25통진행운점,경기,김포시,37.672221500286,126.58489044764,2026-04-30,2026-04-30
V3K58,GS25지축명성점,경기,고양시,37.6528048421373,126.907303928863,2026-04-30,2026-04-30
V3K66,GS25용인양지점,경기,용인시,37.2195594475963,127.316597631254,2026-04-30,2026-04-30
V3K72,GS25조대정문점,광주,동구,35.1450362630729,126.925070690687,2026-04-30,2026-04-30
V3K73,GS25광주양산유탑점,광주,북구,35.2090630502945,126.874542980509,2026-04-30,2026-04-30
V3K75,GS25창원지귀시장점,경남,창원시,35.2456929865408,128.657926420122,2026-04-30,2026-04-30
V3K77,GS25숭의삼거리점,인천,미추홀구,37.4658811808396,126.652732320603,2026-04-30,2026-04-30
V3K78,GS25모현신시가지점,전북,익산시,35.9515669585324,126.940137469569,2026-04-30,2026-04-30
V3K86,GS25진주성창점,경남,진주시,35.1891007041264,128.124493516713,2026-04-30,2026-04-30
V3K88,GS25춘천웰라움점,강원,춘천시,37.8640657287412,127.741560199755,2026-04-30,2026-04-30
V3K92,GS25제주연북점,제주,제주시,33.4808942057156,126.490156144423,2026-04-30,2026-04-30
V3K93,GS25의왕숲속마을점,경기,의왕시,37.4033046897651,126.986123442723,2026-04-30,2026-04-30
V3K96,GS25서구원당점,인천,서구,37.5947807328608,126.700973589052,2026-04-30,2026-04-30
V3M23,GS25화랑현대점,경북,경주시,35.844309437975,129.212846767448,2026-04-30,2026-04-30
V3M28,GS25태화강정원점,울산,중구,35.5497893764603,129.296156758308,2026-04-30,2026-04-30
V3M33,GS25도두해안로점,제주,제주시,33.5091139845413,126.477677436427,2026-04-30,2026-04-30
V3M38,GS25미아신일점,서울,강북구,37.6270311121709,127.025228002636,2026-04-30,2026-04-30
V3M42,GS25한국가스공사점,대구,동구,35.8868047212034,128.729854278463,2026-04-30,2026-04-30
V3M48,GS25양산사랑채점,경남,양산시,35.401864833579,129.170012065923,2026-04-30,2026-04-30
V3M52,GS25장안홈타운점,서울,동대문구,37.5680753511719,127.073324189942,2026-04-30,2026-04-30
V3M54,GS25성주산단점,경북,성주군,35.9350256881345,128.289104906301,2026-04-30,2026-04-30
V3M59,GS25신월드림점,서울,양천구,37.5386999406436,126.827544475024,2026-04-30,2026-04-30
V3M62,GS25율현은하점,서울,강남구,37.4699646625821,127.118839641245,2026-04-30,2026-04-30
V3M64,GS25무거옥현점,울산,남구,35.5448686790569,129.261305987018,2026-04-30,2026-04-30
V3M72,GS25제천금성점,충북,제천시,37.0630545057918,128.166924071514,2026-04-30,2026-04-30
V3M75,GS25인제갯골점,강원,인제군,38.0636614314564,128.163947723178,2026-04-30,2026-04-30
V3M85,GS25수지하음점,경기,용인시,37.3158081185684,127.091362724374,2026-04-30,2026-04-30
V3M99,GS25한화리조트경주담톤점,경북,경주시,35.859498519969,129.270096888097,2026-04-30,2026-04-30
V3N23,GS25발산아이파크점,서울,강서구,37.5606523285047,126.837908296904,2026-04-30,2026-04-30
V3N25,GS25포천송천점,경기,포천시,37.8335168220697,127.147189880598,2026-04-30,2026-04-30
V3N45,GS25관악봉림점,서울,관악구,37.4805759358292,126.939448300965,2026-04-30,2026-04-30
V3N46,GS25한양제일점,서울,성동구,37.5598062471816,127.040874050348,2026-04-30,2026-04-30
V3N47,GS25단양으뜸점,충북,단양군,36.9833303984551,128.368841893318,2026-04-30,2026-04-30
V3N53,GS25보령웅천점,충남,보령시,36.2328012279204,126.600182048928,2026-04-30,2026-04-30
V3N54,GS25강화드림점,인천,강화군,37.7509300698463,126.493104823942,2026-04-30,2026-04-30
V3N55,GS25동덕여대사랑점,서울,성북구,37.6051271574118,127.041788230262,2026-04-30,2026-04-30
V3N56,GS25파주스마트점,경기,파주시,37.8155266440323,126.752826236771,2026-04-30,2026-04-30
V3N59,GS25가평맹호점,경기,가평군,37.8315006603806,127.344936772037,2026-04-30,2026-04-30
V3N64,GS25구미진평희망점,경북,구미시,36.0973215360729,128.425711063004,2026-04-30,2026-04-30
V3N66,GS25송내푸르지오점,경기,부천시,37.4858974202832,126.766258657725,2026-04-30,2026-04-30
V3N67,GS25성주가천점,경북,성주군,35.8855079018242,128.16537155126,2026-04-30,2026-04-30
V3N73,GS25여수덕양점,전남,여수시,34.799174347124,127.630324408297,2026-04-30,2026-04-30
V3N78,GS25진영휴먼시아점,경남,김해시,35.3053731787837,128.737780063383,2026-04-30,2026-04-30
V3N82,GS25동대문배봉점,서울,동대문구,37.5783953529866,127.06683383017,2026-04-30,2026-04-30
V3N85,GS25성남운동장점,경기,성남시,37.433851237841,127.133680930242,2026-04-30,2026-04-30
V3N93,GS25송파잠실점,서울,송파구,37.5056283459214,127.078574439024,2026-04-30,2026-04-30
V3N97,GS25봉천래인,서울,관악구,37.486930980949,126.953911376965,2026-04-30,2026-04-30
V3N99,GS25뉴음성생극점,충북,음성군,37.0334395596417,127.60737751659,2026-04-30,2026-04-30
V3P24,GS25일산아쿠아점,경기,고양시,37.6635194225504,126.75540530794,2026-04-30,2026-04-30
V3P27,GS25유천사랑점,대전,중구,36.3155334189423,127.392777880462,2026-04-30,2026-04-30
V3P28,GS25철산사성로점,경기,광명시,37.4899961823797,126.866084989087,2026-04-30,2026-04-30
V3P33,GS25왜관희망점,경북,칠곡군,35.9828626295652,128.400264043167,2026-04-30,2026-04-30
V3P35,GS25울산동부신안점,울산,동구,35.5456154137905,129.430036142088,2026-04-30,2026-04-30
V3P43,GS25안양무림점,경기,안양시,37.4164831361662,126.909623988539,2026-04-30,2026-04-30
V3P47,GS25광교중흥점,경기,수원시,37.2820437132144,127.057813395976,2026-04-30,2026-04-30
V3P49,GS25임학역점,인천,계양구,37.5445436524104,126.737909033845,2026-04-30,2026-04-30
V3P52,GS25거제아주센텀점,경남,거제시,34.8619534039245,128.684969034072,2026-04-30,2026-04-30
V3P57,GS25서울숲M타워점,서울,성동구,37.5440749924538,127.046575037871,2026-04-30,2026-04-30
V3P58,GS25연수파크자이점,인천,연수구,37.4120545670153,126.656791155858,2026-04-30,2026-04-30
V3P59,GS25진량다문점,경북,경산시,35.8751793631046,128.851287027726,2026-04-30,2026-04-30
V3P65,GS25달서구마로점,대구,달서구,35.8376151578882,128.534076922803,2026-04-30,2026-04-30
V3P72,GS25지산대로점,대구,수성구,35.8260177043005,128.626634342236,2026-04-30,2026-04-30
V3P73,GS25S학동역점,서울,강남구,37.5143012187014,127.031784339382,2026-04-30,2026-04-30
V3P74,GS25분당헤리츠점,경기,성남시,37.3494923040507,127.108181537998,2026-04-30,2026-04-30
V3P77,GS25방배홈타운점,서울,서초구,37.4919259945564,126.984261156699,2026-04-30,2026-04-30
V3P82,GS25덕례하우스점,전남,광양시,34.9642590094354,127.574046474811,2026-04-30,2026-04-30
V3P83,GS25이도오복점,제주,제주시,33.4973751005131,126.536045522629,2026-04-30,2026-04-30
V3P84,GS25서사라점,제주,제주시,33.5034917426709,126.519670933296,2026-04-30,2026-04-30
V3P85,GS25사상모덕점,부산,사상구,35.1822087042541,128.981897550418,2026-04-30,2026-04-30
V3P87,GS25순천남문점,전남,순천시,34.9475981268483,127.487006134786,2026-04-30,2026-04-30
V3P89,GS25목원대스타,대전,서구,36.33095500183,127.34180013697,2026-04-30,2026-04-30
V3P99,GS25엔터팰리스점,대전,유성구,36.3576799364933,127.34233335901,2026-04-30,2026-04-30
V3Q28,GS25양정조은점,부산,부산진구,35.1710795585137,129.070770405427,2026-04-30,2026-04-30
V3Q32,GS25울산방천점,울산,울주군,35.5659903125054,129.1147584433,2026-04-30,2026-04-30
V3Q33,GS25함양안의점,경남,함양군,35.6281153347287,127.811984814094,2026-04-30,2026-04-30
V3Q34,GS25동주대점,부산,사하구,35.1026768639411,128.995277330501,2026-04-30,2026-04-30
V3Q36,GS25전주중화산점,전북,전주시,35.815798991559,127.124240444838,2026-04-30,2026-04-30
V3Q37,GS25신정힐스테이트,서울,양천구,37.5194309015721,126.853694388384,2026-04-30,2026-04-30
V3Q38,GS25서산어울림점,충남,서산시,36.8247214524064,126.445799431198,2026-04-30,2026-04-30
V3Q45,GS25국립교통재활병원점,경기,양평군,37.4896100991469,127.518456771471,2026-04-30,2026-04-30
V3Q46,GS25의정부SK점,경기,의정부시,37.750020407581,127.034989368246,2026-04-30,2026-04-30
V3Q54,GS25삼례대명점,전북,완주군,35.9043647317491,127.070645931685,2026-04-30,2026-04-30
V3Q55,GS25전북대학로점,전북,전주시,35.842638594261,127.12652521039,2026-04-30,2026-04-30
V3Q58,GS25성남코아루점,경기,성남시,37.43575449001,127.140133924318,2026-04-30,2026-04-30
V3Q68,GS25대도대로점,경북,포항시,36.0145755410346,129.364578343298,2026-04-30,2026-04-30
V3Q69,GS25왜관리버빌점,경북,칠곡군,35.9971768781553,128.397142257367,2026-04-30,2026-04-30
V3Q76,GS25송탄아리스타점,경기,평택시,37.0776305689055,127.054733028172,2026-04-30,2026-04-30
V3Q79,GS25상동길주로점,경기,부천시,37.5060900381965,126.757692923009,2026-04-30,2026-04-30
V3Q87,GS25공릉센타점,서울,노원구,37.6268715476987,127.079483714184,2026-04-30,2026-04-30
V3Q89,GS25호계청구점,울산,북구,35.6384110880903,129.347348997597,2026-04-30,2026-04-30
V3Q92,GS25서구대평리점,대구,서구,35.8769435973221,128.558993622669,2026-04-30,2026-04-30
V3Q96,GS25권선세지로점,경기,수원시,37.262112115997,127.022266709569,2026-04-30,2026-04-30
V3R25,GS25신도림타운점,서울,영등포구,37.5063033533058,126.894453959234,2026-04-30,2026-04-30
V3R27,GS25갈현하늘점,서울,은평구,37.6275609714985,126.916418968798,2026-04-30,2026-04-30
V3R28,GS25가좌한신점,인천,서구,37.4930698015185,126.685162594566,2026-04-30,2026-04-30
V3R33,GS25인천공촌점,인천,서구,37.5512608034571,126.68380247462,2026-04-30,2026-04-30
V3R36,GS25신천가람점,대구,동구,35.875898807652,128.61056009142,2026-04-30,2026-04-30
V3R38,GS25팔용중앙점,경남,창원시,35.2561032946676,128.608261325817,2026-04-30,2026-04-30
V3R43,GS25장기레스트점,경기,김포시,37.6399173878626,126.68514203328,2026-04-30,2026-04-30
V3R44,GS25반구미래점,울산,중구,35.5590164437292,129.346480686089,2026-04-30,2026-04-30
V3R45,GS25제주신대로점,제주,제주시,33.4837259306679,126.498391647404,2026-04-30,2026-04-30
V3R49,GS25군산러브점,전북,군산시,35.9777327991101,126.725155091171,2026-04-30,2026-04-30
V3R52,GS25경장행복점,전북,군산시,35.9700457876679,126.732030501778,2026-04-30,2026-04-30
V3R56,GS25송정가온점,서울,강서구,37.5625839303052,126.812863688499,2026-04-30,2026-04-30
V3R65,GS25용인금령점,경기,용인시,37.2408688248025,127.173287681815,2026-04-30,2026-04-30
V3R66,GS25용산경리단점,서울,용산구,37.5385171243394,126.987160721705,2026-04-30,2026-04-30
V3R67,GS25호계현대점,경기,안양시,37.3856259983944,126.949966077012,2026-04-30,2026-04-30
V3R72,GS25R서울구남3점,경기,과천시,37.4474744949969,127.01706003193,2026-04-30,2026-04-30
V3R73,GS25세종뉴푸른점,세종,"가름로255-21,",36.4953634276426,127.266712224773,2026-04-30,2026-04-30
V3R74,GS25동래센트럴점,부산,동래구,35.2116210651361,129.086251120181,2026-04-30,2026-04-30
V3R75,GS25아산펜타점,충남,아산시,36.7977731356697,127.10501723565,2026-04-30,2026-04-30
V3R77,GS25용봉원룸점,광주,북구,35.1798145716812,126.914238688457,2026-04-30,2026-04-30
V3R78,GS25동자제일점,서울,용산구,37.549736566628,126.972704375111,2026-04-30,2026-04-30
V3R82,GS25상동스타점,경기,부천시,37.4921055594701,126.742307842599,2026-04-30,2026-04-30
V3R83,GS25의정이편한점,경기,의정부시,37.754264680368,127.035047803384,2026-04-30,2026-04-30
V3R85,GS25수원선일점,경기,수원시,37.2611863837099,127.03023793508,2026-04-30,2026-04-30
V3R86,GS25속초노학점,강원,속초시,38.1965633836831,128.537589890885,2026-04-30,2026-04-30
V3R87,GS25금호역점,서울,성동구,37.5482862679138,127.015105830232,2026-04-30,2026-04-30
V3R92,GS25마산세정점,경남,창원시,35.2018431145552,128.574052344562,2026-04-30,2026-04-30
V3R93,GS25평택가톨릭점,경기,평택시,36.9963812549797,127.091228218529,2026-04-30,2026-04-30
V3R98,GS25순천덕월점,전남,순천시,34.9309584258561,127.489473778717,2026-04-30,2026-04-30
V3S23,GS25휘경사랑점,서울,동대문구,37.5824644812727,127.068662581219,2026-04-30,2026-04-30
V3S25,GS25뉴서귀포의료원점,제주,서귀포시,33.2557937799922,126.563928584882,2026-04-30,2026-04-30
V3S32,GS25G신방우리네점,충남,천안시,36.7892602288282,127.128533088562,2026-04-30,2026-04-30
V3S36,GS25천안테크노점,충남,천안시,36.8585706520441,127.120223169856,2026-04-30,2026-04-30
V3S37,GS25구리토평점,경기,구리시,37.5898169539528,127.14622579117,2026-04-30,2026-04-30
V3S38,GS25뉴케이프포인트점,부산,사하구,35.0529207606627,128.961578499205,2026-04-30,2026-04-30
V3S39,GS25인천사랑점,인천,미추홀구,37.4584655227187,126.684739552637,2026-04-30,2026-04-30
V3S42,GS25스프링자이2호점,경기,용인시,37.2680144569687,127.147194547623,2026-04-30,2026-04-30
V3S44,GS25중구순화점,서울,중구,37.5610678784245,126.972266046286,2026-04-30,2026-04-30
V3S45,GS25일산강선점,경기,고양시,37.6729425253524,126.769882259865,2026-04-30,2026-04-30
V3S46,GS25갈월하늘점,서울,용산구,37.5475507924344,126.972100597611,2026-04-30,2026-04-30
V3S47,GS25원주IC점,강원,원주시,37.3964391057701,127.952451352523,2026-04-30,2026-04-30
V3S52,GS25서재빌리지점,경기,평택시,37.0108688295113,127.097977850636,2026-04-30,2026-04-30
V3S55,GS25우만센트럴점,경기,수원시,37.287865810951,127.028914965893,2026-04-30,2026-04-30
V3S59,GS25민락현대점,경기,의정부시,37.7402173184482,127.09646466125,2026-04-30,2026-04-30
V3S64,GS25광주매곡점,경기,광주시,37.3724492901788,127.248093348654,2026-04-30,2026-04-30
V3S65,GS25기흥더시티점,경기,용인시,37.294007608774,127.118389014544,2026-04-30,2026-04-30
V3S66,GS25원주H타워점,강원,원주시,37.3250601655827,127.977071038409,2026-04-30,2026-04-30
V3S67,GS25옥포성안로점,경남,거제시,34.8933597218029,128.694606517514,2026-04-30,2026-04-30
V3S77,GS25대전스카이점,대전,서구,36.3498464040103,127.365405639686,2026-04-30,2026-04-30
V3S78,GS25서귀홍중점,제주,서귀포시,33.2576572502021,126.556665085896,2026-04-30,2026-04-30
V3S88,GS25배곧에토스점,경기,시흥시,37.3673736233002,126.726237504827,2026-04-30,2026-04-30
V3T25,GS25다산샤르망점,경기,남양주시,37.6244353730819,127.151256995263,2026-04-30,2026-04-30
V3T26,GS25송정3단지점,경기,군포시,37.3172827230657,126.919236314977,2026-04-30,2026-04-30
V3T28,GS25울산매곡공단점,울산,북구,35.646672740061,129.363631169908,2026-04-30,2026-04-30
V3T29,GS25평촌두산점,경기,안양시,37.3868830099919,126.955572230677,2026-04-30,2026-04-30
V3T34,GS25포항대해점,경북,포항시,36.0241197643963,129.367727473415,2026-04-30,2026-04-30
V3T37,GS25출판도시점,경기,파주시,37.7083216777638,126.686782108462,2026-04-30,2026-04-30
V3T42,GS25경북대첨성관점,대구,북구,35.8913881627736,128.614932680774,2026-04-30,2026-04-30
V3T55,GS25구미원호점,경북,구미시,36.1514608610916,128.32925296486,2026-04-30,2026-04-30
V3T65,GS25호매실중앙점,경기,수원시,37.2660955085625,126.960893487639,2026-04-30,2026-04-30
V3T66,GS25세류덕영점,경기,수원시,37.2607742513917,127.006579730333,2026-04-30,2026-04-30
V3T68,GS25기장한길점,부산,기장군,35.234690361053,129.218325929207,2026-04-30,2026-04-30
V3T69,GS25부평파리상뜨점,인천,부평구,37.5051568695061,126.721708425388,2026-04-30,2026-04-30
V3T82,GS25선부경일점,경기,안산시,37.3470198477536,126.805890061096,2026-04-30,2026-04-30
V3T85,GS25세종반곡점,세종,"한누리대로1821,",36.4973719940052,127.31200082626,2026-04-30,2026-04-30
V3T92,GS25구리서일점,경기,구리시,37.5945147124909,127.146681787069,2026-04-30,2026-04-30
V3T94,GS25삼정스타점,경기,부천시,37.5196111052516,126.772027921411,2026-04-30,2026-04-30
V3T95,GS25창원대학교점,경남,창원시,35.2423139658191,128.690004813391,2026-04-30,2026-04-30
V3T97,GS25광안대교점,부산,수영구,35.1490130180558,129.11474148874,2026-04-30,2026-04-30
V3U23,GS25성남명성점,경기,성남시,37.4396114058468,127.135230618894,2026-04-30,2026-04-30
V3U24,GS25성남샬롬점,경기,성남시,37.4334213525705,127.1266801018,2026-04-30,2026-04-30
V3U26,GS25센트럴타운점,경기,수원시,37.2619022837454,127.006779138083,2026-04-30,2026-04-30
V3U29,GS25울산슬도로점,울산,동구,35.4883050844879,129.42671574956,2026-04-30,2026-04-30
V3U36,GS25농성대남점,광주,서구,35.1508636334374,126.885594421615,2026-04-30,2026-04-30
V3U39,GS25용인금학점,경기,용인시,37.2373905169653,127.202234051718,2026-04-30,2026-04-30
V3U43,GS25미아송중점,서울,강북구,37.6163399640969,127.031212219833,2026-04-30,2026-04-30
V3U45,GS25쌍문선덕점,서울,도봉구,37.6571576556305,127.028019495214,2026-04-30,2026-04-30
V3U46,GS25R서울구북2점,경기,과천시,37.4474744949969,127.01706003193,2026-04-30,2026-04-30
V3U47,GS25순천향학사점,충남,아산시,36.7768261629123,126.932754703858,2026-04-30,2026-04-30
V3U48,GS25칠곡동림점,대구,북구,35.9424528056887,128.56254811685,2026-04-30,2026-04-30
V3U59,GS25안동강남점,경북,안동시,36.5493173057557,128.735197107124,2026-04-30,2026-04-30
V3U64,GS25포항호동대로점,경북,포항시,35.9900957504652,129.383629492853,2026-04-30,2026-04-30
V3U66,GS25오수중앙점,전북,임실군,35.5387222792798,127.327092058317,2026-04-30,2026-04-30
V3U67,GS25부천성곡점,경기,부천시,37.5184406086785,126.802861315163,2026-04-30,2026-04-30
V3U76,GS25궐동명성점,경기,오산시,37.1613374727708,127.053907155161,2026-04-30,2026-04-30
V3U77,GS25시흥로드점,경기,시흥시,37.4222840404738,126.837471764242,2026-04-30,2026-04-30
V3U78,GS25천호후레쉬점,서울,강동구,37.5418159192385,127.137267145595,2026-04-30,2026-04-30
V3U89,GS25시흥대로2점,서울,금천구,37.4405323506185,126.903772210647,2026-04-30,2026-04-30
V3U92,GS25부곡센타점,부산,금정구,35.2427164600986,129.091500573732,2026-04-30,2026-04-30
V3U94,GS25서귀돈내코점,제주,서귀포시,33.3020513521128,126.576915011556,2026-04-30,2026-04-30
V3U95,GS25종로도렴점,서울,종로구,37.5730773998589,126.97418423274,2026-04-30,2026-04-30
V3U97,GS25김해새롬점,경남,김해시,35.2315365431389,128.921927249712,2026-04-30,2026-04-30
V3V22,GS25송탄삼익점,경기,평택시,37.0853387683057,127.063151957858,2026-04-30,2026-04-30
V3V32,GS25스타웍스점,대전,서구,36.3526021152699,127.382240542652,2026-04-30,2026-04-30
V3V34,GS25주안중앙점,인천,미추홀구,37.4617060932158,126.677991205546,2026-04-30,2026-04-30
V3V37,GS25화명벽산점,부산,북구,35.2415192693967,129.014761478245,2026-04-30,2026-04-30
V3V38,GS25뉴모래내제일점,서울,서대문구,37.5691729989249,126.916302165433,2026-04-30,2026-04-30
V3V43,GS25운남삼성점,광주,광산구,35.1731453370084,126.821641640917,2026-04-30,2026-04-30
V3V46,GS25당진구래점,충남,당진시,36.9412429651515,126.790050814537,2026-04-30,2026-04-30
V3V48,GS25쌍문도봉길점,서울,도봉구,37.653008805962,127.035213135836,2026-04-30,2026-04-30
V3V49,GS25분당한솔마을점,경기,성남시,37.3663508712309,127.120141202519,2026-04-30,2026-04-30
V3V58,GS25성주벽진점,경북,성주군,35.9478135244401,128.217866339037,2026-04-30,2026-04-30
V3V59,GS25보령청라점,충남,보령시,36.3893946217994,126.659388108225,2026-04-30,2026-04-30
V3V62,GS25양구백두산점,강원,양구군,38.2262721780396,127.955278040325,2026-04-30,2026-04-30
V3V67,GS25통진귀전점,경기,김포시,37.7125967193179,126.61389470827,2026-04-30,2026-04-30
V3V68,GS25구로경인점,서울,구로구,37.4989022916713,126.854324573751,2026-04-30,2026-04-30
V3V72,GS25양주장흥본점,경기,양주시,37.7191668838416,126.94314960169,2026-04-30,2026-04-30
V3V73,GS25강일9단지점,서울,강동구,37.5595593054246,127.17927030069,2026-04-30,2026-04-30
V3V77,GS25흥업LH점,강원,원주시,37.2995177616126,127.92215640074,2026-04-30,2026-04-30
V3V79,GS25의정장암점,경기,의정부시,37.725491037074,127.055714783196,2026-04-30,2026-04-30
V3V82,GS25대구검단대로점,대구,북구,35.9074625115695,128.621172832964,2026-04-30,2026-04-30
V3V84,GS25황등해담점,전북,익산시,35.9976738702741,126.945000715032,2026-04-30,2026-04-30
V3V86,GS25정남세자로점,경기,화성시,37.1757179490128,126.98085795693,2026-04-30,2026-04-30
V3V87,GS25고양현천점,경기,고양시,37.5927869706926,126.868016621556,2026-04-30,2026-04-30
V3V88,GS25상무S클래스점,광주,서구,35.1575166630181,126.850897416469,2026-04-30,2026-04-30
V3V93,GS25금천초교점,서울,금천구,37.4534922156362,126.910896013231,2026-04-30,2026-04-30
V3V96,GS25삼육부산병원점,부산,서구,35.1124698976413,129.011138257663,2026-04-30,2026-04-30
V3V98,GS25영도제일점,부산,영도구,35.0776451029606,129.070281248644,2026-04-30,2026-04-30
V3W22,GS25남산범어점,부산,금정구,35.2697036461178,129.091500227905,2026-04-30,2026-04-30
V3W38,GS25서구내당역점,대구,서구,35.8611182651949,128.564351991119,2026-04-30,2026-04-30
V3W42,GS25포항달전삼도점,경북,포항시,36.0763245981665,129.340144885489,2026-04-30,2026-04-30
V3W46,GS25전대오피스점,광주,북구,35.1721717964999,126.911332272678,2026-04-30,2026-04-30
V3W55,GS25효성유승점,인천,계양구,37.5263114481026,126.713258931769,2026-04-30,2026-04-30
V3W56,GS25광주고은점,경기,광주시,37.4068512340738,127.308487581412,2026-04-30,2026-04-30
V3W59,GS25금사공단로점,부산,금정구,35.2165871521159,129.111107575096,2026-04-30,2026-04-30
V3W62,GS25산인공단점,경남,함안군,35.2672474576973,128.481936786002,2026-04-30,2026-04-30
V3W64,GS25인덕원사랑점,경기,안양시,37.4016709146425,126.974285950945,2026-04-30,2026-04-30
V3W68,GS25공릉중앙점,서울,노원구,37.619661700411,127.073523476323,2026-04-30,2026-04-30
V3W69,GS25진접행복점,경기,남양주시,37.7281847692483,127.194273685529,2026-04-30,2026-04-30
V3W72,GS25제천내토점,충북,제천시,37.1314271781197,128.205285779809,2026-04-30,2026-04-30
V3W74,GS25제주해안점,제주,제주시,33.4592931634556,126.454325181665,2026-04-30,2026-04-30
V3W76,GS25방학타운,서울,도봉구,37.6688254322851,127.037853834214,2026-04-30,2026-04-30
V3W77,GS25방학우성점,서울,도봉구,37.6572580471069,127.022714159277,2026-04-30,2026-04-30
V3W84,GS25위례메디타운점,경기,성남시,37.4624405225037,127.143355762197,2026-04-30,2026-04-30
V3W88,GS25여수베네치아점,전남,여수시,34.7457877997288,127.751758833605,2026-04-30,2026-04-30
V3W93,GS25서창꿈에그린점,인천,남동구,37.4302043418483,126.757670013108,2026-04-30,2026-04-30
V3W98,GS25대구삼덕점,대구,중구,35.8655405649177,128.600260051956,2026-04-30,2026-04-30
V3W99,GS25포천봉솔로점,경기,포천시,37.8272918861965,127.142365487162,2026-04-30,2026-04-30
V3X22,GS25거제사곡자이온점,경남,거제시,34.8922333523314,128.568099434097,2026-04-30,2026-04-30
V3X27,GS25대구산격대로점,대구,북구,35.899463705899,128.614984201703,2026-04-30,2026-04-30
V3X28,GS25송파다빈치점,서울,송파구,37.5027121261559,127.138802347198,2026-04-30,2026-04-30
V3X39,GS25전주교대점,전북,전주시,35.8100141432762,127.153449338328,2026-04-30,2026-04-30
V3X46,GS25양평서종점,경기,양평군,37.5958141476169,127.351273301945,2026-04-30,2026-04-30
V3X52,GS25대구태전드림점,대구,북구,35.9171683734028,128.549504429967,2026-04-30,2026-04-30
V3X56,GS25강북믿음점,서울,강북구,37.6272385687078,127.03183000908,2026-04-30,2026-04-30
V3X63,GS25장항중앙점,경기,고양시,37.6586312078728,126.767840177804,2026-04-30,2026-04-30
V3X64,GS25창원썬앤빌점,경남,창원시,35.2363228632867,128.697282143031,2026-04-30,2026-04-30
V3X67,GS25중동덕유마을점,경기,부천시,37.5104428654439,126.765515859607,2026-04-30,2026-04-30
V3X73,GS25부천해피점,경기,부천시,37.4723933243339,126.794460725592,2026-04-30,2026-04-30
V3X74,GS25원주연대점,강원,원주시,37.2777568074157,127.91080025736,2026-04-30,2026-04-30
V3X76,GS25본촌리채점,광주,북구,35.213747363257,126.878124863039,2026-04-30,2026-04-30
V3X78,GS25월산부영점,경기,남양주시,37.6547051708468,127.337921830506,2026-04-30,2026-04-30
V3X85,GS25도림로점,서울,영등포구,37.4930709622442,126.896808705531,2026-04-30,2026-04-30
V3X87,GS25용인플라자CC점,경기,용인시,37.1330110933123,127.141033737529,2026-04-30,2026-04-30
V3X88,GS25태전파크자이점,경기,광주시,37.3802465374899,127.234465569905,2026-04-30,2026-04-30
V3X89,GS25신가부영점,광주,광산구,35.1868596627963,126.839856719791,2026-04-30,2026-04-30
V3X92,GS25상록반월공원점,경기,안산시,37.2898871373843,126.870613980342,2026-04-30,2026-04-30
V3X98,GS25구미송정점,경북,구미시,36.1169574945378,128.345837420741,2026-04-30,2026-04-30
V3X99,GS25일광행복점,부산,기장군,35.2694134063824,129.235826779431,2026-04-30,2026-04-30
V3Y22,GS25영등포흥국점,서울,영등포구,37.5210756572356,126.913377289684,2026-04-30,2026-04-30
V3Y24,GS25오금후레쉬점,서울,송파구,37.5021258697494,127.133787434467,2026-04-30,2026-04-30
V3Y27,GS25충주한림점,충북,충주시,36.9819824660037,127.939515567271,2026-04-30,2026-04-30
V3Y29,GS25삼산평천로점,인천,부평구,37.5160559998444,126.746646023596,2026-04-30,2026-04-30
V3Y33,GS25중랑타운점,서울,중랑구,37.6040301091688,127.093468522714,2026-04-30,2026-04-30
V3Y38,GS25불당한성점,충남,천안시,36.8032438386601,127.113537726132,2026-04-30,2026-04-30
V3Y45,GS25방배우성점,서울,서초구,37.4742868032344,126.982566336117,2026-04-30,2026-04-30
V3Y47,GS25전농SK점,서울,동대문구,37.5768051766577,127.062868576356,2026-04-30,2026-04-30
V3Y49,GS25여수소라점,전남,여수시,34.7499632486404,127.627866998557,2026-04-30,2026-04-30
V3Y53,GS25광주노대점,광주,남구,35.1064800678396,126.906512514861,2026-04-30,2026-04-30
V3Y56,GS25장유CGV,경남,김해시,35.1919277294462,128.802009516727,2026-04-30,2026-04-30
V3Y58,GS25울산온양점,울산,울주군,35.4087019290386,129.288925982391,2026-04-30,2026-04-30
V3Y62,GS25효자원룸점,전북,전주시,35.8342570556341,127.10211139703,2026-04-30,2026-04-30
V3Y67,GS25서산음암점,충남,서산시,36.7894596239249,126.505475837898,2026-04-30,2026-04-30
V3Y69,GS25평택어울림점,경기,평택시,36.9993361947667,127.129661913314,2026-04-30,2026-04-30
V3Y72,GS25대림파밀리에점,서울,영등포구,37.4951677216384,126.903303038615,2026-04-30,2026-04-30
V3Y77,GS25건양대병원점,대전,서구,36.3065635376812,127.341147337586,2026-04-30,2026-04-30
V3Y78,GS25동해센터점,강원,동해시,37.5219258014459,129.113532069293,2026-04-30,2026-04-30
V3Y83,GS25심곡2점,경기,부천시,37.4806584900921,126.778906130686,2026-04-30,2026-04-30
V3Y87,GS25스프링자이1호점,경기,용인시,37.2698285421218,127.150105661243,2026-04-30,2026-04-30
V3Y89,GS25구미신당점,경북,구미시,36.1521107910991,128.443122379569,2026-04-30,2026-04-30
V3Y92,GS25오식도원룸점,전북,군산시,35.9623220281752,126.570678916469,2026-04-30,2026-04-30
V3Y99,GS25수원예술점,경기,수원시,37.2579717814963,127.0338301742,2026-04-30,2026-04-30
V3Z25,GS25안양스마일점,경기,안양시,37.4023067928974,126.919158664236,2026-04-30,2026-04-30
V3Z26,GS25원흥타운점,경기,고양시,37.651333053719,126.869634012669,2026-04-30,2026-04-30
V3Z27,GS25경주구어점,경북,경주시,35.6950438049423,129.330734691217,2026-04-30,2026-04-30
V3Z29,GS25노유점,서울,광진구,37.5401347691424,127.06771754227,2026-04-30,2026-04-30
V3Z32,GS25역촌행복점,서울,은평구,37.6007793960148,126.917078832754,2026-04-30,2026-04-30
V3Z33,GS25상명사랑점,서울,종로구,37.6001608034442,126.95852466913,2026-04-30,2026-04-30
V3Z37,GS25도림아이파크점,인천,남동구,37.4220951346939,126.730520249585,2026-04-30,2026-04-30
V3Z38,GS25신사진주점,서울,강남구,37.5237537643181,127.038472895365,2026-04-30,2026-04-30
V3Z42,GS25구미대동점,경북,구미시,36.089362026773,128.36915751201,2026-04-30,2026-04-30
V3Z45,GS25오산스위첸점,경기,오산시,37.1317026510499,127.067916197978,2026-04-30,2026-04-30
V3Z46,GS25학하리슈빌점,대전,유성구,36.3372188446002,127.300487373656,2026-04-30,2026-04-30
V3Z57,GS25독바위역점,서울,은평구,37.618555658909,126.932804369292,2026-04-30,2026-04-30
V3Z59,GS25대치학여울점,서울,강남구,37.4978377519966,127.068672615338,2026-04-30,2026-04-30
V3Z65,GS25오산매홀점,경기,오산시,37.1695043883948,127.067936992658,2026-04-30,2026-04-30
V3Z66,GS25분평푸른점,충북,청주시,36.6120377992139,127.493021456184,2026-04-30,2026-04-30
V3Z67,GS25태평2동점,경기,성남시,37.4495604860019,127.137873990581,2026-04-30,2026-04-30
V3Z74,GS25천곡원룸점,강원,동해시,37.5157241797825,129.119502934358,2026-04-30,2026-04-30
V3Z75,GS25장암대우점,경기,의정부시,37.7247356147909,127.055894515775,2026-04-30,2026-04-30
V3Z77,GS25제주월랑점,제주,제주시,33.4926957787473,126.471755878584,2026-04-30,2026-04-30
V3Z78,GS25영남고정문점,대구,달서구,35.8201160534719,128.53704700246,2026-04-30,2026-04-30
V3Z86,GS25중계센트럴점,서울,노원구,37.6434851496926,127.059834466167,2026-04-30,2026-04-30
V3Z87,GS25라비드아틀란점,부산,해운대구,35.1610313113048,129.161400721721,2026-04-30,2026-04-30
V3Z89,GS25삼척사직로점,강원,삼척시,37.4331634476291,129.166722207686,2026-04-30,2026-04-30
V3Z92,GS25사정중앙점,대전,중구,36.2975443333995,127.3857023281,2026-04-30,2026-04-30
V3Z93,GS25아산일성점,충남,아산시,36.7918359950351,127.000928075844,2026-04-30,2026-04-30
V3Z94,GS25청주영운점,충북,청주시,36.6202325094943,127.508765362905,2026-04-30,2026-04-30
V3Z95,GS25송산금강점,경기,화성시,37.2837449881534,126.821887752149,2026-04-30,2026-04-30
V4000,GS25신촌파크점,서울,서대문구,37.5561568246571,126.938571821038,2026-04-30,2026-04-30
V4026,GS25노원파르코점,서울,노원구,37.6801882793278,127.05582367525,2026-04-30,2026-04-30
V4057,GS25하이팰리스점,서울,영등포구,37.5218950669138,126.884291616707,2026-04-30,2026-04-30
V4092,GS25대륭포스트점,서울,구로구,37.4859481349723,126.897286469404,2026-04-30,2026-04-30
V4094,GS25인천송월점,인천,중구,37.4796873235571,126.626311074475,2026-04-30,2026-04-30
V4106,GS25신월중앙점,서울,양천구,37.536196873967,126.82863590304,2026-04-30,2026-04-30
V4112,GS25성남소망점,경기,성남시,37.4387208661287,127.126844626884,2026-04-30,2026-04-30
V4134,GS25건양대점,충남,논산시,36.1803646813233,127.111402579528,2026-04-30,2026-04-30
V4136,GS25구로싸이언점,서울,구로구,37.4842992200602,126.899221573826,2026-04-30,2026-04-30
V4139,GS25양재유진점,서울,서초구,37.4838444604411,127.036066616217,2026-04-30,2026-04-30
V4168,GS25송내중앙점,경기,부천시,37.4870025384451,126.756493564316,2026-04-30,2026-04-30
V4169,GS25구로성우점,서울,구로구,37.4948538616965,126.842014706935,2026-04-30,2026-04-30
V4175,GS25낙산비치점,강원,양양군,38.117533691677,128.632440944653,2026-04-30,2026-04-30
V4185,GS25대전도룡점,대전,유성구,36.385913569225,127.3790239671,2026-04-30,2026-04-30
V4187,GS25공덕대우점,서울,마포구,37.5433723444425,126.952863992789,2026-04-30,2026-04-30
V4233,GS25유천중앙점,대전,중구,36.316802560232,127.397812895504,2026-04-30,2026-04-30
V4241,GS25장호원점,경기,이천시,37.117246087955,127.629778579161,2026-04-30,2026-04-30
V4285,GS25계룡금암점,충남,계룡시,36.2744487914251,127.254499268747,2026-04-30,2026-04-30
V4292,GS25화도묵현점,경기,남양주시,37.656883794084,127.274650004976,2026-04-30,2026-04-30
V4302,GS25대전판암점,대전,동구,36.3232917951676,127.460277569692,2026-04-30,2026-04-30
V4310,GS25태안신항점,충남,태안군,36.681660111651,126.134845486915,2026-04-30,2026-04-30
V4333,GS25가산스타점,서울,금천구,37.4816776612097,126.884843959337,2026-04-30,2026-04-30
V4335,GS25서초법원점,서울,서초구,37.4930904477471,127.010017502308,2026-04-30,2026-04-30
V4370,GS25성정5단지점,충남,천안시,36.8153501789459,127.13736130242,2026-04-30,2026-04-30
V4373,GS25천안삼성점,충남,천안시,36.839110600612,127.116028405404,2026-04-30,2026-04-30
V4385,GS25여의파라곤점,서울,영등포구,37.5309412069212,126.921154260692,2026-04-30,2026-04-30
V4404,GS25대천점,충남,보령시,36.3030497167278,126.520069062613,2026-04-30,2026-04-30
V4406,GS25속초영동점,강원,속초시,38.2073449930244,128.572449991111,2026-04-30,2026-04-30
V4415,GS25보령시티점,충남,보령시,36.3501929053661,126.599611612093,2026-04-30,2026-04-30
V4424,GS25의정동부점,경기,의정부시,37.735768787624,127.048618385529,2026-04-30,2026-04-30
V4465,GS25호평메인점,경기,남양주시,37.6550702571372,127.244067863479,2026-04-30,2026-04-30
V4495,GS25동작사당점,서울,동작구,37.4805935103728,126.979349011862,2026-04-30,2026-04-30
V4499,GS25속초교동점,강원,속초시,38.193926373101,128.574936202815,2026-04-30,2026-04-30
V4527,GS25모악산점,전북,완주군,35.7294221006804,127.106570629206,2026-04-30,2026-04-30
V4537,GS25온천파크점,충남,아산시,36.788467798508,126.99689346391,2026-04-30,2026-04-30
V4539,GS25능곡파워점,경기,고양시,37.6261016665276,126.824124048955,2026-04-30,2026-04-30
V4549,GS25노량제일점,서울,동작구,37.5134184846349,126.942389094183,2026-04-30,2026-04-30
V4560,GS25춘천센터점,강원,춘천시,37.8855014202299,127.750046315125,2026-04-30,2026-04-30
V4582,GS25성수우림점,서울,성동구,37.5468215250589,127.063277469874,2026-04-30,2026-04-30
V4585,GS25대야미역점,경기,군포시,37.3277358629307,126.917337837329,2026-04-30,2026-04-30
V4602,GS25월계주공점,서울,노원구,37.626720531841,127.051276887719,2026-04-30,2026-04-30
V4626,GS25녹천본점,서울,도봉구,37.645549157323,127.048658154986,2026-04-30,2026-04-30
V4647,GS25춘천대학로점,강원,춘천시,37.8723902666151,127.741110710635,2026-04-30,2026-04-30
V4648,GS25문정중앙점,서울,송파구,37.4855237036302,127.124593642019,2026-04-30,2026-04-30
V4664,GS25평촌한가람점,경기,안양시,37.3979108094338,126.955430708045,2026-04-30,2026-04-30
V4684,GS25포남대로점,강원,강릉시,37.7611966991387,128.905042476527,2026-04-30,2026-04-30
V4716,GS25금왕터미널점,충북,음성군,36.9924765991995,127.597678732189,2026-04-30,2026-04-30
V4746,GS25관악역점,경기,안양시,37.4189793601548,126.909655625588,2026-04-30,2026-04-30
V4751,GS25우송사랑점,대전,동구,36.3342903538721,127.445197646645,2026-04-30,2026-04-30
V4753,GS25문래한신점,서울,영등포구,37.521548651138,126.887690578737,2026-04-30,2026-04-30
V4760,GS25금천타운점,서울,금천구,37.4820280405315,126.876166496241,2026-04-30,2026-04-30
V4763,GS25영등포본점,서울,영등포구,37.5168003389951,126.907036613851,2026-04-30,2026-04-30
V4771,GS25덕양관산점,경기,고양시,37.6875285156999,126.866976683917,2026-04-30,2026-04-30
V4779,GS25안산주공점,경기,안산시,37.3205751576398,126.846044844476,2026-04-30,2026-04-30
V4789,GS25구의타운점,서울,광진구,37.5391602498355,127.094208018046,2026-04-30,2026-04-30
V4802,GS25양평역점,서울,영등포구,37.5262115184099,126.886252508999,2026-04-30,2026-04-30
V4825,GS25가산세진점,서울,금천구,37.4794226933391,126.884594772246,2026-04-30,2026-04-30
V4827,GS25신세계점,광주,서구,35.1620551991836,126.883235740804,2026-04-30,2026-04-30
V4830,GS25화성왕림점,경기,화성시,37.2020110147133,126.942654990052,2026-04-30,2026-04-30
V4841,GS25청주복대점,충북,청주시,36.6296122860817,127.440700798267,2026-04-30,2026-04-30
V486,GS25논현동현점,서울,강남구,37.5206211818243,127.037743775312,2026-04-30,2026-04-30
V4860,GS25삼성터미널점,서울,강남구,37.5086826809624,127.056819977951,2026-04-30,2026-04-30
V4870,GS25길음동부점,서울,성북구,37.609003171784,127.023265750916,2026-04-30,2026-04-30
V4899,GS25영등포사랑점,서울,영등포구,37.5183567571466,126.909706253631,2026-04-30,2026-04-30
V4908,GS25잠실2점,서울,송파구,37.5155948484543,127.112863170865,2026-04-30,2026-04-30
V4910,GS25강남쌍용점,서울,강남구,37.4952611897053,127.030593627466,2026-04-30,2026-04-30
V4912,GS25의정행복점,경기,의정부시,37.7421242173808,127.047901766117,2026-04-30,2026-04-30
V4927,GS25평택영진점,경기,평택시,36.9930665726885,127.100906468194,2026-04-30,2026-04-30
V4948,GS25로데오점,서울,강남구,37.5275503797662,127.037756722753,2026-04-30,2026-04-30
V4961,GS25광주목현점,경기,광주시,37.4294218572578,127.237762508345,2026-04-30,2026-04-30
V4969,GS25강릉제일점,강원,강릉시,37.7576503071078,128.889201723844,2026-04-30,2026-04-30
V4973,GS25덕진광장점,전북,전주시,35.8444293297411,127.124889407471,2026-04-30,2026-04-30
V4A22,GS25구월효명점,인천,남동구,37.4451896500675,126.701538998437,2026-04-30,2026-04-30
V4A25,GS25구미뜨란채점,경북,구미시,36.142356817247,128.316302694703,2026-04-30,2026-04-30
V4A26,GS25가락명성점,서울,송파구,37.4958539313543,127.125140497196,2026-04-30,2026-04-30
V4A28,GS25시흥데이콤점,서울,금천구,37.4540622289119,126.897528154707,2026-04-30,2026-04-30
V4A34,GS25연천군청점,경기,연천군,38.0962085438557,127.074217688294,2026-04-30,2026-04-30
V4A44,GS25이문햇살점,서울,동대문구,37.5939111070495,127.057717237292,2026-04-30,2026-04-30
V4A47,GS25청천대로점,인천,부평구,37.5192651577626,126.704160409787,2026-04-30,2026-04-30
V4A48,GS25동교타운점,서울,마포구,37.5577145322651,126.921527165862,2026-04-30,2026-04-30
V4A49,GS25장안수성점,경기,수원시,37.2926794844004,127.005236105757,2026-04-30,2026-04-30
V4A53,GS25진량원룸점,경북,경산시,35.8749729715873,128.82274671929,2026-04-30,2026-04-30
V4A58,GS25평촌아이파크점,경기,안양시,37.3936450842465,126.964242302458,2026-04-30,2026-04-30
V4A62,GS25신북등나무점,경기,포천시,37.9333587070014,127.227103435466,2026-04-30,2026-04-30
V4A63,GS25강릉대로점,강원,강릉시,37.7849331051139,128.874792881572,2026-04-30,2026-04-30
V4A66,GS25영종파크드림점,인천,중구,37.4932016491832,126.559594884203,2026-04-30,2026-04-30
V4A69,GS25동작성대점,서울,동작구,37.4975329511912,126.935352427589,2026-04-30,2026-04-30
V4A75,GS25동양휴먼빌점,인천,계양구,37.5635583393189,126.757758933816,2026-04-30,2026-04-30
V4A78,GS25중동본점,경기,부천시,37.4930691531757,126.772269907591,2026-04-30,2026-04-30
V4A83,GS25정관공단2호점,부산,기장군,35.3159176757326,129.184211104818,2026-04-30,2026-04-30
V4A84,GS25평촌신라점,경기,안양시,37.3970127925855,126.956798437117,2026-04-30,2026-04-30
V4A85,GS25여수선경중앙점,전남,여수시,34.7714322836659,127.701831635685,2026-04-30,2026-04-30
V4A86,GS25남양타운점,경기,화성시,37.206203692122,126.835203125551,2026-04-30,2026-04-30
V4A88,GS25부산문현로점,부산,남구,35.141568835828,129.072709671698,2026-04-30,2026-04-30
V4A89,GS25서구충무점,부산,서구,35.095570637386,129.023761301013,2026-04-30,2026-04-30
V4A94,GS25호계수성점,울산,북구,35.6284104794753,129.353440342158,2026-04-30,2026-04-30
V4A96,GS25동탄모아점,경기,화성시,37.2065227430991,127.057794134128,2026-04-30,2026-04-30
V4A97,GS25목동10단지점,서울,양천구,37.5163337230469,126.8595333944,2026-04-30,2026-04-30
V4A99,GS25이천증포점,경기,이천시,37.2971980494721,127.455728004491,2026-04-30,2026-04-30
V4B28,GS25성내파크점,서울,강동구,37.5250986109073,127.131972363751,2026-04-30,2026-04-30
V4B33,GS25구로거성점,서울,구로구,37.4900018970338,126.852662412758,2026-04-30,2026-04-30
V4B35,GS25순천연향부영점,전남,순천시,34.9432085818326,127.520347119352,2026-04-30,2026-04-30
V4B39,GS25뉴전주덕진점,전북,전주시,35.8487223438621,127.155562901033,2026-04-30,2026-04-30
V4B47,GS25카이스트원룸점,서울,동대문구,37.5913236282128,127.049653575321,2026-04-30,2026-04-30
V4B53,GS25홍천대명기숙사점,강원,홍천군,37.6637127288461,127.693909935629,2026-04-30,2026-04-30
V4B55,GS25울산진하점,울산,울주군,35.3840696864872,129.345787151524,2026-04-30,2026-04-30
V4B56,GS25용인서리점,경기,용인시,37.212066834113,127.169038538912,2026-04-30,2026-04-30
V4B59,GS25장항이스턴점,경기,고양시,37.6567133105958,126.773153047861,2026-04-30,2026-04-30
V4B64,GS25용인송전점,경기,용인시,37.1403867826331,127.197050020853,2026-04-30,2026-04-30
V4B66,GS25대구전자관점,대구,북구,35.9087097750182,128.60642534005,2026-04-30,2026-04-30
V4B75,GS25월계성북역점,서울,노원구,37.622957782862,127.060749712199,2026-04-30,2026-04-30
V4B76,GS25행신포인트점,경기,고양시,37.6130639659765,126.833220441779,2026-04-30,2026-04-30
V4B77,GS25월곡화랑점,서울,성북구,37.6042104541247,127.03322668197,2026-04-30,2026-04-30
V4B78,GS25구로개웅점,서울,구로구,37.4851508992425,126.85417252785,2026-04-30,2026-04-30
V4B82,GS25당진행복점,충남,당진시,36.9006277497734,126.63114131202,2026-04-30,2026-04-30
V4B88,GS25원시티소노점,경기,고양시,37.6617692047764,126.750073605849,2026-04-30,2026-04-30
V4B89,GS25적성천사,경기,파주시,37.9528854104468,126.917284520332,2026-04-30,2026-04-30
V4B92,GS25와우시티점,경기,파주시,37.8666420346993,126.784118098231,2026-04-30,2026-04-30
V4B93,GS25창원극동점,경남,창원시,35.2550089296496,128.612549967446,2026-04-30,2026-04-30
V4B98,GS25G광주거북이점,경기,광주시,37.4076970426694,127.208940651081,2026-04-30,2026-04-30
V4B99,GS25계양대로점,인천,계양구,37.5270184267148,126.722783949385,2026-04-30,2026-04-30
V4C23,GS25팔탄노하점,경기,화성시,37.1619843060057,126.869353735483,2026-04-30,2026-04-30
V4C25,GS25태안백화로점,충남,태안군,36.755420236759,126.305940103358,2026-04-30,2026-04-30
V4C27,GS25구미인의중앙점,경북,구미시,36.1022732304629,128.424704981746,2026-04-30,2026-04-30
V4C36,GS25유성중앙점,대전,유성구,36.358132351076,127.349260105697,2026-04-30,2026-04-30
V4C37,GS25원시티시온점,경기,고양시,37.6635709119232,126.749193369617,2026-04-30,2026-04-30
V4C38,GS25안중금곡우림점,경기,평택시,36.9940443028003,126.951828452824,2026-04-30,2026-04-30
V4C44,GS25영종샛별점,인천,중구,37.4920620576535,126.557606239832,2026-04-30,2026-04-30
V4C55,GS25우성스타점,서울,강동구,37.5376139031889,127.141796361968,2026-04-30,2026-04-30
V4C62,GS25강동으뜸점,서울,강동구,37.5256246248996,127.134896484287,2026-04-30,2026-04-30
V4C65,GS25동백원룸점,경기,용인시,37.2839698701434,127.141782180146,2026-04-30,2026-04-30
V4C66,GS25기흥이안점,경기,용인시,37.2714632959171,127.108887069457,2026-04-30,2026-04-30
V4C67,GS25경산동신점,경북,경산시,35.8178960692614,128.752217605568,2026-04-30,2026-04-30
V4C68,GS25송탄추담점,경기,평택시,37.0583707849876,127.070364295624,2026-04-30,2026-04-30
V4C73,GS25광주시청점,경기,광주시,37.4165600080643,127.257075266688,2026-04-30,2026-04-30
V4C74,GS25북창점,서울,중구,37.5621948305291,126.977536526217,2026-04-30,2026-04-30
V4C75,GS25달서나사렛점,대구,달서구,35.8145620859717,128.525235296821,2026-04-30,2026-04-30
V4C79,GS25봉명시티점,충북,청주시,36.6387050201089,127.456212732722,2026-04-30,2026-04-30
V4C86,GS25충주힐데스점,충북,충주시,36.9554130943485,127.934022676608,2026-04-30,2026-04-30
V4C87,GS25울산삼호점,울산,남구,35.551038136526,129.266034876374,2026-04-30,2026-04-30
V4C88,GS25온산스마일점,울산,울주군,35.4380920996541,129.306718964883,2026-04-30,2026-04-30
V4C89,GS25용산한남점,서울,용산구,37.5342604663021,127.009055637079,2026-04-30,2026-04-30
V4C94,GS25파주로데오점,경기,파주시,37.7617896953182,126.77500767648,2026-04-30,2026-04-30
V4C97,GS25부산부민병원점,부산,북구,35.2121427408293,129.011572587626,2026-04-30,2026-04-30
V4C99,GS25일산동구청점,경기,고양시,37.6583556976684,126.773398049983,2026-04-30,2026-04-30
V4D22,GS25숭의하늘점,인천,미추홀구,37.4653895321604,126.646761337724,2026-04-30,2026-04-30
V4D23,GS25평화엠코점,전북,전주시,35.7890186312717,127.11898064964,2026-04-30,2026-04-30
V4D24,GS25복현타운점,대구,북구,35.8912571348003,128.619373378784,2026-04-30,2026-04-30
V4D26,GS25창동시티점,서울,도봉구,37.6536771402256,127.050979850533,2026-04-30,2026-04-30
V4D27,GS25해운대골든튤립점,부산,해운대구,35.1622956003895,129.165842169538,2026-04-30,2026-04-30
V4D28,GS25방배E푸른점,서울,서초구,37.4904455372906,126.993429433404,2026-04-30,2026-04-30
V4D29,GS25주안용일점,인천,미추홀구,37.4506138733268,126.667506085877,2026-04-30,2026-04-30
V4D32,GS25달동굿모닝,울산,남구,35.5351425343696,129.321094767715,2026-04-30,2026-04-30
V4D34,GS25응암햇살점,서울,은평구,37.5919704347723,126.917421476009,2026-04-30,2026-04-30
V4D35,GS25대명파크점,대구,남구,35.8407606797332,128.571247664926,2026-04-30,2026-04-30
V4D38,GS25직산군동점,충남,천안시,36.8988485858804,127.16602316648,2026-04-30,2026-04-30
V4D42,GS25범어신도시점,경남,양산시,35.3289594089342,129.011851025683,2026-04-30,2026-04-30
V4D44,GS25성북건영점,서울,성북구,37.6006599973648,127.013556085644,2026-04-30,2026-04-30
V4D45,GS25시화시티점,경기,시흥시,37.3460484358803,126.74931647421,2026-04-30,2026-04-30
V4D52,GS25홍천동면점,강원,홍천군,37.6777327733755,127.937902345283,2026-04-30,2026-04-30
V4D53,GS25동해부곡미성점,강원,동해시,37.5372933161698,129.109200858659,2026-04-30,2026-04-30
V4D55,GS25수성데시앙점,대구,수성구,35.8612502582238,128.617998863035,2026-04-30,2026-04-30
V4D58,GS25운암아이파크점,광주,북구,35.1793666145331,126.870132331183,2026-04-30,2026-04-30
V4D62,GS25권곡청솔점,충남,아산시,36.7913129722187,127.014951685198,2026-04-30,2026-04-30
V4D65,GS25울산성진점,울산,북구,35.5553466871028,129.354647174718,2026-04-30,2026-04-30
V4D66,GS25온산행복점,울산,울주군,35.4316417448209,129.309753207936,2026-04-30,2026-04-30
V4D73,GS25수지심곡로점,경기,용인시,37.3102115075121,127.081897422182,2026-04-30,2026-04-30
V4D74,GS25익산오거리점,전북,익산시,35.9453031450551,126.966012895231,2026-04-30,2026-04-30
V4D75,GS25정관행복점,부산,기장군,35.3415708933416,129.1618807445,2026-04-30,2026-04-30
V4D76,GS25여수GS점,전남,여수시,34.7533397826658,127.705806658116,2026-04-30,2026-04-30
V4D79,GS25파주오소리점,경기,파주시,37.7792757347669,126.686868543961,2026-04-30,2026-04-30
V4D87,GS25장수유어스점,인천,남동구,37.4517807997214,126.749639536867,2026-04-30,2026-04-30
V4D88,GS25권선고산로점,경기,수원시,37.24870710176,126.980914094925,2026-04-30,2026-04-30
V4D89,GS25장덕에버빌점,광주,광산구,35.1891599180432,126.811188474591,2026-04-30,2026-04-30
V4D93,GS25대전미라클점,대전,유성구,36.3540785418658,127.342987527679,2026-04-30,2026-04-30
V4D94,GS25대명로드점,경기,김포시,37.647795680938,126.568458386546,2026-04-30,2026-04-30
V4D97,GS25향동꾸미점,경기,고양시,37.603792155788,126.89216515125,2026-04-30,2026-04-30
V4D99,GS25마산퍼스트점,경기,김포시,37.6348545284052,126.646925712989,2026-04-30,2026-04-30
V4F25,GS25김해한국점,경남,김해시,35.2303163650075,128.863809628631,2026-04-30,2026-04-30
V4F32,GS25동래제일점,부산,동래구,35.2167050932967,129.078169008065,2026-04-30,2026-04-30
V4F33,GS25대림춘혜점,서울,영등포구,37.5001565371096,126.897168282982,2026-04-30,2026-04-30
V4F35,GS25고등행복점,경기,성남시,37.4295512186125,127.094884297205,2026-04-30,2026-04-30
V4F39,GS25강릉포남점,강원,강릉시,37.7687211653917,128.911921880579,2026-04-30,2026-04-30
V4F44,GS25소하드림점,경기,광명시,37.4475619936084,126.889429810653,2026-04-30,2026-04-30
V4F45,GS25원곡초교점,경기,안산시,37.3279107992418,126.796341713065,2026-04-30,2026-04-30
V4F47,GS25노원수락산역점,서울,노원구,37.676558943354,127.056050985007,2026-04-30,2026-04-30
V4F49,GS25당진서해로점,충남,당진시,36.886649769831,126.740261932081,2026-04-30,2026-04-30
V4F57,GS25수성사랑점,대구,수성구,35.854222029599,128.615840619532,2026-04-30,2026-04-30
V4F59,GS25향남행정점,경기,화성시,37.1274059831931,126.914365041016,2026-04-30,2026-04-30
V4F66,GS25남구로포인트점,서울,구로구,37.4839293836399,126.891459062651,2026-04-30,2026-04-30
V4F68,GS25쌍용이화점,충남,천안시,36.7978211069163,127.133445154098,2026-04-30,2026-04-30
V4F73,GS25안산타원점,경기,안산시,37.3010625900956,126.786967386765,2026-04-30,2026-04-30
V4F85,GS25정읍휴먼점,전북,정읍시,35.5570712727875,126.876014321109,2026-04-30,2026-04-30
V4F87,GS25여수둔덕중앙점,전남,여수시,34.7659799633178,127.702550300567,2026-04-30,2026-04-30
V4F88,GS25성내한빛점,서울,강동구,37.5343825357151,127.132385423907,2026-04-30,2026-04-30
V4F92,GS25강서우장점,서울,강서구,37.5469194201503,126.835043198163,2026-04-30,2026-04-30
