"code","title","address","address_detail","phone","lat","lng","open_date","end_date","start_hhmm","end_hhmm","is_24h","svc_parcel","svc_atm","svc_wine","svc_coffee","svc_smoothie","svc_apple","svc_toto","svc_auto","svc_pickup","svc_chicken","svc_noodle","tobacco_license","first_seen_at","last_seen_at"
"26817","밀양예림점","경상남도 밀양시 상남면 밀양대로 1531-1","","","35.4677762602118","128.760580127272","2023-10-18","","00:00","00:00",1,0,0,0,0,0,0,0,0,0,0,0,0,"2026-04-29","2026-04-29"
"26876","R광주각화점","광주광역시 북구 동문대로249번길 7","상가동 101호","","35.183806019298","126.930810464267","2023-10-13","","00:00","00:00",1,1,1,1,1,0,0,0,0,0,1,1,0,"2026-04-29","2026-04-29"
"26885","화성덕신상가점","경기도 화성시 정남면 만년로 421","","","37.1592923948035","126.98198223044","2023-10-20","","06:00","01:00",0,1,0,0,0,0,0,0,0,0,0,0,0,"2026-04-29","2026-04-29"
"26887","장흥타운점","경기도 양주시 장흥면 권율로89번길 68","","","37.7222941863805","126.944925881445","2023-10-06","","07:00","01:00",0,1,0,0,0,0,0,0,0,0,0,0,0,"2026-04-29","2026-04-29"
"26890","내포가람점","충청남도 홍성군 홍북읍 홍예로 164","상가동 1 ,2 호","","36.6417072046019","126.679935670998","2023-10-06","","00:00","00:00",1,0,0,1,1,0,0,0,1,0,0,0,0,"2026-04-29","2026-04-29"
"26898","R노원은빛1단지점","서울특별시 노원구 동일로245길 162","지하 1층","","37.6808384621835","127.0542198702","2023-10-09","","00:00","00:00",1,1,0,1,1,0,0,0,1,0,1,1,0,"2026-04-29","2026-04-29"
"26900","R스카이가족점","인천광역시 중구 흰바위로 277","","","37.4803600899183","126.505956243075","2023-10-04","","00:00","00:00",1,1,0,0,0,0,0,0,0,0,1,0,0,"2026-04-29","2026-04-29"
"26905","여의도공원4호점","서울특별시 영등포구 여의공원로 68","","","37.5268088229325","126.922284053463","2023-10-06","","07:00","22:00",0,0,0,0,0,0,0,0,0,0,0,1,0,"2026-04-29","2026-04-29"
"26908","R마포망원로점","서울특별시 마포구 망원로3길 34","","","37.5581824603591","126.901008863615","2023-10-13","","00:00","00:00",1,1,0,0,1,0,1,0,1,0,0,1,0,"2026-04-29","2026-04-29"
"26909","포항이동중앙점","경상북도 포항시 남구 대이로83번길 6","","","36.0227413745939","129.33991955294","2023-10-08","","06:00","00:00",0,1,0,1,1,0,0,0,0,0,0,1,0,"2026-04-29","2026-04-29"
"26911","용인삼가빌리지점","경기도 용인시 처인구 중부대로 1123","","","37.2411993259722","127.170650527563","2023-10-04","","06:00","00:00",0,1,0,0,0,0,0,0,0,0,0,0,0,"2026-04-29","2026-04-29"
"26914","안양한마음점","경기도 안양시 동안구 경수대로797번길 26","1층 101호","","37.3904481820743","126.943932588699","2023-10-06","","00:00","00:00",1,1,0,0,0,0,0,0,0,0,0,0,0,"2026-04-29","2026-04-29"
"26916","울산대학로점","울산광역시 남구 대학로76번길 7-2","1층","","35.5413929925355","129.259953965631","2023-10-04","","00:00","00:00",1,0,0,0,1,0,1,0,0,0,0,0,0,"2026-04-29","2026-04-29"
"26928","R전북대점","전북특별자치도 전주시 덕진구 권삼득로 346","","","35.8458346746076","127.125047612004","2023-10-14","","00:00","00:00",1,1,0,1,1,0,0,0,1,0,0,1,0,"2026-04-29","2026-04-29"
"26935","홍성금마로드점","충청남도 홍성군 금마면 충서로 1900","","","36.6091028618211","126.701674052651","2023-10-16","","07:00","22:00",0,0,0,0,0,0,0,0,0,0,0,0,0,"2026-04-29","2026-04-29"
"26938","철길숲점","경상북도 포항시 북구 양학로10번길 22-1","","","36.0264854248239","129.352881900062","2023-10-10","","00:00","00:00",1,1,0,1,1,0,1,0,1,0,0,1,0,"2026-04-29","2026-04-29"
"26945","평촌현대제우스점","경기도 안양시 동안구 경수대로 563","101-1호","","37.3730163487583","126.957090474084","2023-10-11","","00:00","00:00",1,0,0,0,0,0,0,0,0,0,0,1,0,"2026-04-29","2026-04-29"
"26946","광주장지행복점","경기도 광주시 절골길 19","","","37.4018910567206","127.234721237195","2023-10-16","","00:00","00:00",1,1,0,0,0,0,0,0,0,0,0,0,0,"2026-04-29","2026-04-29"
"26947","김해쌍용플래티넘점","경상남도 김해시 금관대로1134번길 20","201동 지하2층 101호","","35.2302469740218","128.851713040016","2023-10-05","","00:00","00:00",1,1,0,0,0,0,0,0,0,0,0,0,0,"2026-04-29","2026-04-29"
"26948","동인천역점","인천광역시 중구 우현로87번길 2","","","37.4747877439289","126.630549216177","2023-10-06","","07:00","01:00",0,1,0,0,0,0,0,0,0,0,0,0,0,"2026-04-29","2026-04-29"
"26949","목포하당풍경채점","전라남도 목포시 석현로25번길 9","근린생활시설동 102호","","34.8165449551867","126.423044787442","2023-10-14","","00:00","00:00",1,1,0,1,1,0,0,0,1,0,1,1,0,"2026-04-29","2026-04-29"
"26950","R전주덕진타운점","전북특별자치도 전주시 덕진구 우아7길 9-14","","","35.8490489114826","127.154633789189","2023-10-10","","00:00","00:00",1,1,0,0,0,0,0,0,0,0,0,0,0,"2026-04-29","2026-04-29"
"26955","고덕디엠스퀘어점","서울특별시 강동구 고덕비즈밸리로4길 35","디엠스퀘어 105호","","37.5676539372864","127.160597185234","2023-10-16","","00:00","00:00",1,0,0,0,0,0,0,0,0,0,0,0,0,"2026-04-29","2026-04-29"
"26957","SMART공주한옥마을점","충청남도 공주시 관광단지길 12","","","36.464685623294","127.107591634932","2023-10-13","","00:00","00:00",1,0,0,1,0,0,0,0,1,0,0,0,0,"2026-04-29","2026-04-29"
"26958","고창병원점","전북특별자치도 고창군 고창읍 화신1길 9","","","35.436379574793","126.693321505323","2023-10-21","","08:00","21:00",0,0,0,0,1,0,0,0,0,0,0,0,0,"2026-04-29","2026-04-29"
"26959","부천푸르지오점","경기도 부천시 중동로 64","상가동 112호","","37.4853426579182","126.765631885182","2023-10-06","","00:00","00:00",1,0,0,1,0,0,1,0,0,0,0,0,0,"2026-04-29","2026-04-29"
"26960","R전주에코포레나점","전북특별자치도 전주시 덕진구 세병로 21","상가동 180호","","35.8748856092856","127.128211314668","2023-10-14","","06:00","01:00",0,1,0,1,1,0,0,0,0,0,0,1,0,"2026-04-29","2026-04-29"
"26961","부평북부점","인천광역시 부평구 경원대로1377번길 9-1","","","37.4917542457027","126.721824862392","2023-10-06","","00:00","00:00",1,1,0,0,1,0,0,0,0,0,0,0,0,"2026-04-29","2026-04-29"
"26966","R장계본점","전북특별자치도 장수군 장계면 문화로 54","","","35.7321143783474","127.587639783286","2023-10-13","","00:00","00:00",1,1,0,1,1,0,1,0,0,0,1,0,0,"2026-04-29","2026-04-29"
"26968","R가산에이원점","서울특별시 금천구 가산디지털1로 205-27","","","37.482895189256","126.878829171601","2023-10-16","","06:00","23:00",0,1,0,1,1,0,0,0,1,0,0,0,0,"2026-04-29","2026-04-29"
"26969","배곧로얄점","경기도 시흥시 서울대학로 59-21","185호","","37.3575729545218","126.705992084464","2023-10-13","","00:00","00:00",1,0,0,0,1,0,0,0,0,0,0,0,0,"2026-04-29","2026-04-29"
"26970","칠곡경북대로점","경상북도 칠곡군 동명면 경북대로 602","","","36.014307172705","128.550303744055","2023-10-13","","00:00","00:00",1,0,0,0,0,0,0,0,0,0,0,0,0,"2026-04-29","2026-04-29"
"26975","창원쿠팡2센터점","경상남도 창원시 진해구 두동로 34","3층","","35.1214157989639","128.802738581835","2023-10-19","","08:00","16:00",1,0,0,0,1,0,0,0,0,0,0,0,0,"2026-04-29","2026-04-29"
"26977","R뉴신평한신점","부산광역시 사하구 비봉로 42","상가동 103,104,105호","","35.0970527267283","128.965872629359","2023-10-16","","00:00","00:00",1,1,0,0,0,0,0,0,0,0,0,0,0,"2026-04-29","2026-04-29"
"26988","남구인하로점","인천광역시 미추홀구 인하로 197","-","","37.4488621999567","126.669894417132","2023-10-10","","07:00","01:00",0,0,0,0,0,0,0,0,0,0,0,0,0,"2026-04-29","2026-04-29"
"26989","대전선화행복점","대전광역시 중구 대종로583번길 14","","","36.3339340607178","127.418267410737","2023-10-31","","06:00","01:00",0,1,0,0,0,0,0,0,0,0,0,0,0,"2026-04-29","2026-04-29"
"26990","진영진남로점","경상남도 김해시 진영읍 진남로 18","102동 1층","","35.3046820315905","128.710431364443","2023-10-16","","00:00","00:00",1,1,0,0,0,0,0,0,0,0,0,0,0,"2026-04-29","2026-04-29"
"27005","충북대농생대점","충청북도 청주시 서원구 충대로 1","충북대학교 첨단바이오연구센터1층","","36.6300443933522","127.455076764458","2023-10-17","","00:00","00:00",1,0,0,0,0,0,1,0,1,0,0,0,0,"2026-04-29","2026-04-29"
"27007","히든베이호텔여수점","전라남도 여수시 신월로 496-25","B1F","","34.721503625204","127.698863568091","2023-10-24","","00:00","00:00",1,0,0,0,0,0,0,0,0,0,0,0,0,"2026-04-29","2026-04-29"
"27008","R구미금오점","경상북도 구미시 금오시장로 19","","","36.126562444116","128.341149990042","2023-10-19","","00:00","00:00",1,1,0,0,0,0,0,0,0,0,0,0,0,"2026-04-29","2026-04-29"
"27010","금곡유림점","부산광역시 북구 금곡대로470번길 35","상가동 1층 102호","","35.251700804447","129.013318649301","2023-10-19","","06:00","01:00",0,0,0,0,0,0,0,0,0,0,0,0,0,"2026-04-29","2026-04-29"
"27012","오이도중앙로점","경기도 시흥시 오이도중앙로36번길 6-9","","","37.3462039342415","126.689293688209","2023-10-13","","00:00","00:00",1,0,0,0,0,0,0,0,0,0,0,0,0,"2026-04-29","2026-04-29"
"27013","R대전배재해든점","대전광역시 서구 도마로 18","","","36.3223801241307","127.372131862494","2023-10-17","","00:00","00:00",1,1,0,0,0,0,0,0,0,0,0,0,0,"2026-04-29","2026-04-29"
"27016","망상해변점","강원특별자치도 동해시 동해대로 6270-20","","","37.5928265687311","129.090469759478","2023-10-13","","08:00","22:00",0,0,0,0,0,0,0,0,0,0,0,0,0,"2026-04-29","2026-04-29"
"27018","SMART국도주유소점","경기도 안산시 상록구 수인로 647","","","37.2955042635753","126.936865900034","2023-10-19","","09:00","17:00",0,0,0,0,1,0,0,0,0,0,0,0,0,"2026-04-29","2026-04-29"
"27021","문정힐스테이트점","서울특별시 송파구 송이로33길 7","101,102호","","37.4879301543113","127.132943808362","2023-10-20","","00:00","00:00",1,1,0,0,0,0,0,0,0,0,0,0,0,"2026-04-29","2026-04-29"
"27023","R하단중앙점","부산광역시 사하구 하신중앙로335번길 28","1층","","35.1056352285745","128.965297527845","2023-10-20","","00:00","00:00",1,1,0,1,1,0,0,0,0,0,0,0,0,"2026-04-29","2026-04-29"
"27025","상봉대광점","서울특별시 중랑구 동일로114길 20","1층","","37.5932953307095","127.081490393249","2023-10-20","","07:00","01:00",0,1,0,0,0,0,0,0,0,0,0,0,0,"2026-04-29","2026-04-29"
"27026","담양죽향로드점","전라남도 담양군 담양읍 죽향문화로 155","","","35.3193383857777","126.971656871604","2023-10-17","","07:00","23:00",0,0,0,0,0,0,0,0,0,0,0,0,0,"2026-04-29","2026-04-29"
"27027","뉴강서강동점","부산광역시 강서구 울만로 26","","","35.1754620476831","128.918763619183","2023-10-16","","05:00","21:00",0,0,0,1,1,0,0,0,0,0,0,0,0,"2026-04-29","2026-04-29"
"27029","부평대박점","인천광역시 부평구 경원대로 1414","102호","","37.4910156002958","126.726065680092","2023-10-20","","06:00","01:00",0,0,0,0,0,0,0,0,0,0,0,0,0,"2026-04-29","2026-04-29"
"27030","학장우성점","부산광역시 사상구 학감대로 107","105, 106호","","35.1407582889424","128.988718855172","2023-10-20","","06:00","02:00",0,0,0,0,0,0,0,0,0,0,0,0,0,"2026-04-29","2026-04-29"
"27036","마산야구거리점","경상남도 창원시 마산합포구 산호북17길 37","","","35.2203778808885","128.584984071748","2023-10-18","","08:00","02:00",0,0,0,0,0,0,0,0,0,0,0,0,0,"2026-04-29","2026-04-29"
"27038","삼성에이스점","서울특별시 강남구 영동대로 640","","","37.5183982498328","127.059549285144","2023-10-16","","07:00","00:00",0,0,0,1,1,0,0,0,0,0,0,0,0,"2026-04-29","2026-04-29"
"27039","당수비발디점","경기도 수원시 권선구 당수로129번길 28","상가 101호","","37.2878638278632","126.940527992917","2023-10-20","","00:00","00:00",1,0,0,1,1,0,0,0,1,0,0,0,0,"2026-04-29","2026-04-29"
"27040","SMART초이휴캠핑장점","경기도 하남시 초이로99번길 49-32","","","37.5426863227558","127.167665070752","2023-10-20","","00:00","00:00",1,0,0,0,0,0,0,0,0,0,0,0,0,"2026-04-29","2026-04-29"
"27041","R청라국제금융단지점","인천광역시 서구 청라한내로 110","123호,124호","","37.5354261397434","126.628132926477","2023-10-20","","00:00","00:00",1,0,0,0,0,0,0,0,0,0,0,0,0,"2026-04-29","2026-04-29"
"27043","SMART나사렛병원점","인천광역시 연수구 먼우금로 98","","","37.4079490183211","126.670483797199","2023-10-17","","00:00","00:00",1,0,0,0,0,0,0,0,1,0,0,0,0,"2026-04-29","2026-04-29"
"27045","진영죽곡공단점","경상남도 김해시 진영읍 서부로179번길 28","","","35.2835235283799","128.770618947366","2023-10-17","","00:00","00:00",1,0,0,0,0,0,0,0,0,0,0,0,0,"2026-04-29","2026-04-29"
"27055","성내태성점","서울특별시 강동구 성내로 91","103호","","37.5269116130292","127.12998876046","2023-10-20","","00:00","00:00",1,1,0,0,0,0,0,0,0,0,0,0,0,"2026-04-29","2026-04-29"
"27057","안성대덕점","경기도 안성시 대덕면 안성맞춤대로 1563","","","37.0502906491278","127.260310659031","2023-10-31","","00:00","00:00",1,1,0,0,0,0,0,0,0,0,0,0,0,"2026-04-29","2026-04-29"
"27059","세종아름우리점","세종특별자치시 절재로 13","상가2동 101,102,103호","","36.51042040047","127.242103596946","2023-10-21","","00:00","00:00",1,1,0,1,1,0,0,0,1,0,0,1,0,"2026-04-29","2026-04-29"
"27060","대전용전신동아점","대전광역시 동구 한밭대로1237번길 52","상가동 102호,103호,104호","","36.358561220014","127.437456123496","2023-10-20","","06:00","01:00",0,1,0,0,0,0,0,0,0,0,0,0,0,"2026-04-29","2026-04-29"
"27061","창원동읍로점","경상남도 창원시 의창구 동읍 동읍로 477","","","35.3082373223572","128.655871345197","2023-10-20","","06:00","00:00",0,1,0,0,0,0,0,0,0,0,0,0,0,"2026-04-29","2026-04-29"
"27062","배곧더원점","경기도 시흥시 서울대학로 100","상가 502동 109호 110호","","37.359512135655855","126.71530949261282","2023-10-20","","06:00","01:00",0,1,0,0,1,0,0,0,0,0,0,0,0,"2026-04-29","2026-04-29"
"27065","내유점","경기도 고양시 덕양구 통일로1258번길 2","1층 일부호","","37.7245092935372","126.844105681926","2023-10-20","","00:00","00:00",1,0,0,0,0,0,0,0,0,0,0,0,0,"2026-04-29","2026-04-29"
"27068","순창시니어스토어점","전북특별자치도 순창군 순창읍 순창로 230","","","35.3755555442888","127.143444069047","2023-10-24","","00:00","00:00",1,1,0,1,1,0,0,0,1,0,0,0,0,"2026-04-29","2026-04-29"
"27069","R대전배재로점","대전광역시 서구 배재로 186","","","36.3249982370387","127.370592293702","2023-10-27","","00:00","00:00",1,1,0,1,1,0,1,0,1,0,0,1,0,"2026-04-29","2026-04-29"
"27071","봉일시장점","서울특별시 관악구 봉천로23나길 45","","","37.4869846249926","126.937874710036","2023-10-17","","00:00","00:00",1,1,0,0,0,0,0,0,0,0,0,0,0,"2026-04-29","2026-04-29"
"27076","대전둔곡위밸류점","대전광역시 유성구 과학지원4길 13","101호","","36.4532775136323","127.360508607055","2023-10-29","","00:00","00:00",1,0,0,1,1,0,0,0,1,0,0,0,0,"2026-04-29","2026-04-29"
"27091","R오토밸리효성점","울산광역시 북구 신천로 105","상가동 6호, 7호","","35.6470598940825","129.35293586753","2023-10-27","","00:00","00:00",1,0,0,0,0,0,0,0,0,0,1,0,0,"2026-04-29","2026-04-29"
"27092","전포일산점","부산광역시 부산진구 진남로 354","1층","","35.156556111692","129.071324187302","2023-10-20","","06:00","00:00",0,1,0,0,0,0,0,0,0,0,0,0,0,"2026-04-29","2026-04-29"
"27093","R울산대병원점","울산광역시 동구 방어진순환도로 871","2층","","35.5192901217418","129.430050981512","2023-10-20","","00:00","00:00",1,0,0,0,1,0,0,0,0,0,0,1,0,"2026-04-29","2026-04-29"
"27096","R김제금백로점","전북특별자치도 김제시 백구면 금백로 1220","","","35.8766094688441","126.995910144963","2023-10-24","","05:00","00:00",0,0,0,1,1,0,0,0,0,0,0,0,0,"2026-04-29","2026-04-29"
"27097","R광양상아점","전라남도 광양시 금영로 182","상가동 101~104호","","34.9664226522508","127.718272494819","2023-10-27","","00:00","00:00",1,1,0,0,0,0,0,0,0,0,0,0,0,"2026-04-29","2026-04-29"
"27098","R양지중부대로점","경기도 용인시 처인구 양지면 중부대로 2660","","","37.2506556525345","127.325890806109","2023-10-26","","00:00","00:00",1,0,0,0,0,0,0,0,0,0,0,0,0,"2026-04-29","2026-04-29"
"27099","장자금호점","경기도 구리시 장자대로 36","","","37.5867454720845","127.134324586629","2023-10-25","","07:00","01:00",0,0,0,0,0,0,0,0,0,0,0,0,0,"2026-04-29","2026-04-29"
"27101","R미추홀센트럴점","인천광역시 미추홀구 경인로42번길 73","","","37.4611428211082","126.649540942328","2023-10-28","","00:00","00:00",1,1,0,1,1,0,0,0,0,0,0,0,0,"2026-04-29","2026-04-29"
"27106","전주효자센터점","전북특별자치도 전주시 완산구  봉곡1길 20","","","35.8131450124868","127.099054483716","2023-10-26","","06:00","00:00",0,1,0,0,0,0,0,0,0,0,0,0,0,"2026-04-29","2026-04-29"
"27107","전하스위첸점","울산광역시 동구 방어진순환도로 863","","","35.5178023584309","129.429982200139","2023-10-27","","07:00","01:00",0,0,0,0,0,0,0,0,0,0,0,0,0,"2026-04-29","2026-04-29"
"27108","R하양점","경상북도 경산시 하양읍 하양로 34","","","35.9087844505302","128.813552683764","2023-10-23","","00:00","00:00",1,1,0,1,1,0,0,0,0,0,0,1,0,"2026-04-29","2026-04-29"
"27109","마산시청점","경상남도 창원시 마산합포구 3·15대로 252","","","35.2006372420246","128.567664378127","2023-10-25","","00:00","00:00",1,0,0,0,0,0,0,0,0,0,0,0,0,"2026-04-29","2026-04-29"
"27125","충남대정문점","대전광역시 유성구 대학로 90","103호","","36.3615487026531","127.344914176062","2023-10-27","","07:00","01:00",0,1,1,1,1,0,0,0,0,0,0,0,0,"2026-04-29","2026-04-29"
"27127","풍암신암점","광주광역시 서구 풍암순환로 148","","","35.1237657976759","126.883997374087","2023-10-31","","00:00","00:00",1,1,0,0,0,0,0,0,0,0,0,0,0,"2026-04-29","2026-04-29"
"27138","R연산자이점","부산광역시 연제구 쌍미천로162번길 26","","","35.1869443457458","129.08868945976","2023-10-27","","06:00","00:00",0,0,0,0,0,0,0,0,0,0,0,0,0,"2026-04-29","2026-04-29"
"27139","R계산서해점","인천광역시 계양구 계산천동로19번길 19","","","37.5396754684984","126.725967644207","2023-10-31","","06:00","01:00",0,1,1,1,1,0,0,0,0,0,0,1,0,"2026-04-29","2026-04-29"
"27146","R송파위례힐스테이트점","서울특별시 송파구 위례광장로 170","힐스테이트상가 B동 101,102호","","37.4798960212267","127.142324795699","2023-10-31","","00:00","00:00",1,1,1,1,1,0,1,0,0,0,0,0,0,"2026-04-29","2026-04-29"
"27158","반여우성점","부산광역시 해운대구 반여로155번길 38","","","35.2061384118145","129.124122087077","2023-10-31","","00:00","00:00",1,0,0,0,0,0,0,0,0,0,0,0,0,"2026-04-29","2026-04-29"
"27159","관악신원점","서울특별시 관악구 남부순환로170길 49(신림동)","","","37.4814042464056","126.923748104363","2023-10-31","","00:00","00:00",1,0,0,0,0,0,0,0,0,0,0,0,0,"2026-04-29","2026-04-29"
"27168","달동중앙점","울산광역시 남구 신정로88번길 22","105호","","35.5400499153613","129.322848173685","2023-10-31","","06:00","02:00",0,0,0,0,0,0,0,0,0,0,0,0,0,"2026-04-29","2026-04-29"
