"code","title","address","address_detail","phone","lat","lng","open_date","end_date","start_hhmm","end_hhmm","is_24h","svc_parcel","svc_atm","svc_wine","svc_coffee","svc_smoothie","svc_apple","svc_toto","svc_auto","svc_pickup","svc_chicken","svc_noodle","tobacco_license","first_seen_at","last_seen_at"
"21547","화성청우점","경기도 화성시 팔탄면 서해로 1409-9","","","37.1864801285657","126.88126000915","2021-01-12","","05:00","00:00",0,0,1,0,1,0,0,0,0,0,0,1,0,"2026-04-29","2026-04-29"
"21559","안성폴리점","경기도 안성시 아양1로 61","","","37.007623840312","127.259358045047","2021-01-05","","00:00","00:00",1,1,0,1,1,0,0,0,1,0,0,0,0,"2026-04-29","2026-04-29"
"21560","대성리역점","경기도 가평군 청평면 경춘로 64-1","","","37.681688233844","127.378230875611","2021-01-06","","00:00","00:00",1,1,0,0,0,0,0,0,0,0,0,0,0,"2026-04-29","2026-04-29"
"21562","R가평상천휴게소점","경기도 가평군 청평면 경춘로 1551","","","37.7873668262741","127.462898740974","2021-01-06","","06:00","20:00",0,0,0,0,0,0,1,0,0,0,1,1,0,"2026-04-29","2026-04-29"
"21563","R순천금당중흥점","전라남도 순천시 장선배기길 105","","","34.9517340664173","127.531135583166","2021-01-06","","00:00","00:00",1,1,0,1,1,0,0,0,1,0,1,1,0,"2026-04-29","2026-04-29"
"21564","R북삼인평점","경상북도 칠곡군 북삼읍 인강4길 24","","","36.0700971511126","128.340267995557","2021-01-29","","00:00","00:00",1,0,1,1,1,0,0,0,0,0,0,1,0,"2026-04-29","2026-04-29"
"21573","R목포해양대학점","전라남도 목포시 해양대학로 91","","","34.7899637493605","126.365826246406","2021-01-11","","08:00","18:00",1,0,0,0,0,0,1,0,0,0,0,1,0,"2026-04-29","2026-04-29"
"21585","R괴산칠성점","충청북도 괴산군 칠성면 도정로 67","","","36.7879475708896","127.864508323867","2021-01-25","","07:00","23:00",0,1,1,1,1,0,0,0,0,0,0,0,0,"2026-04-29","2026-04-29"
"21587","스타필드코엑스몰4호점","서울특별시 강남구 영동대로 513(삼성동)","B1 C109호","","37.5118239121138","127.059159043842","2021-01-12","","07:00","23:00",0,0,0,0,0,0,0,0,0,0,0,0,0,"2026-04-29","2026-04-29"
"21592","여주건은로점","경기도 여주시 가남읍 건은로 25","","","37.1957508752172","127.548435672938","2021-01-13","","00:00","00:00",1,0,0,1,1,0,0,0,0,0,0,0,0,"2026-04-29","2026-04-29"
"21593","성수AK점","서울특별시 성동구 연무장길 76","","","37.5415059744829","127.057526618044","2021-01-13","","00:00","00:00",1,0,0,1,1,0,1,0,1,0,0,0,0,"2026-04-29","2026-04-29"
"21598","남원중앙하이츠점","전북특별자치도 남원시 동림로 129","","","35.4173412950769","127.382684924553","2021-01-15","","06:00","01:00",0,0,0,1,1,0,0,0,0,0,1,1,0,"2026-04-29","2026-04-29"
"21602","강서대저점","부산광역시 강서구 대저로 57","","","35.2152826880812","128.958863541201","2021-01-12","","06:00","00:00",0,0,0,0,1,0,0,0,0,0,0,0,0,"2026-04-29","2026-04-29"
"21606","김포사우타운점","경기도 김포시 봉화로 54","","","37.620314709876","126.712407756915","2021-01-18","","00:00","00:00",1,1,0,1,1,0,1,0,1,0,1,0,0,"2026-04-29","2026-04-29"
"21611","효목화랑로점","대구광역시 동구 화랑로 145","","","35.8750922605612","128.641941197125","2021-01-27","","06:00","01:00",0,1,0,1,1,0,0,0,0,0,0,1,0,"2026-04-29","2026-04-29"
"21616","한국은행점","서울특별시 중구 남대문로5길 9","","","37.5617442432919","126.978862530774","2021-01-14","","07:00","01:00",0,0,1,1,1,0,0,0,0,0,0,0,0,"2026-04-29","2026-04-29"
"21618","R내촌휴게소점","경기도 포천시 내촌면 금강로 2708","","","37.8080572717544","127.25351981462","2021-01-30","","00:00","00:00",1,0,0,1,1,0,0,0,0,0,1,1,0,"2026-04-29","2026-04-29"
"21619","천안두정오성점","충청남도 천안시 서북구 오성4길 12","","","36.8313993237338","127.132827786599","2021-01-20","","06:00","00:00",0,1,1,1,1,0,0,0,1,0,0,1,0,"2026-04-29","2026-04-29"
"21621","구룡포구포점","경상북도 포항시 남구 구룡포읍 동해안로 4131","","","35.9381789866961","129.525741538692","2021-01-22","","06:00","00:00",0,0,0,0,1,0,0,0,0,0,0,0,0,"2026-04-29","2026-04-29"
"21629","R거창상림점","경상남도 거창군 거창읍 중앙로 41","","","35.6848201657771","127.903334335248","2021-01-27","","06:00","01:00",1,0,0,1,1,0,0,0,0,0,0,1,0,"2026-04-29","2026-04-29"
"21631","R화순광신점","전라남도 화순군 화순읍 대리길 39","","","35.0592586341939","126.977652286708","2021-01-28","","08:00","00:00",1,1,1,1,1,0,0,0,0,0,0,1,0,"2026-04-29","2026-04-29"
"21639","등촌현대점","서울특별시 강서구 공항대로45길 24","","","37.556219490843","126.855292147594","2021-01-27","","06:00","00:00",0,0,0,1,1,0,0,0,0,0,0,1,0,"2026-04-29","2026-04-29"
"21642","속초한라리센점","강원특별자치도 속초시 해오름로 171","","","38.1889001584128","128.603244563621","2021-01-31","","08:00","00:00",0,0,0,1,1,0,0,0,0,0,0,0,0,"2026-04-29","2026-04-29"
"21644","광주늑현점","경기도 광주시 초월읍 산수로 43-1","","","37.3664251710308","127.316519776987","2021-01-29","","07:00","23:00",1,0,0,1,1,0,0,0,1,0,0,0,0,"2026-04-29","2026-04-29"
"21665","R연희햇살점","서울특별시 서대문구 가좌로 31","","","37.5772475512387","126.932003518596","2021-01-30","","00:00","00:00",1,1,0,1,1,0,0,0,0,0,0,1,0,"2026-04-29","2026-04-29"
"21666","R성안청구점","울산광역시 중구 함월22길 25","","","35.5796727496693","129.315983851901","2021-01-30","","00:00","00:00",1,1,1,1,1,0,1,0,0,0,1,1,0,"2026-04-29","2026-04-29"
"21669","관악문성로점","서울특별시 관악구 문성로38길 25","","","37.4775396960194","126.930411353552","2021-01-30","","06:00","01:00",0,0,0,0,1,0,0,0,0,0,0,0,0,"2026-04-29","2026-04-29"
"21671","영남물류점","경상북도 칠곡군 지천면  금호로  272","","","35.961460871215","128.451012229715","2021-01-25","","00:00","00:00",1,0,0,0,0,0,0,0,0,0,0,0,0,"2026-04-29","2026-04-29"
"21675","R광명가학본점","경기도 광명시 가학로 89","","","37.4162930490081","126.858960978084","2021-01-31","","06:00","01:00",0,1,0,1,1,0,0,0,0,0,0,0,0,"2026-04-29","2026-04-29"
"21683","부천신흥로점","경기도 부천시 신흥로 333","","","37.5134266904482","126.774897016884","2021-01-31","","00:00","00:00",1,1,0,1,1,0,0,0,0,0,0,0,0,"2026-04-29","2026-04-29"
"21684","춘천호텔벤틀리점","강원특별자치도 춘천시 춘천로170번길 17","","","37.8753601117516","127.734312369228","2021-01-22","","08:00","02:00",0,1,0,0,0,0,0,0,0,0,0,0,0,"2026-04-29","2026-04-29"
"21687","안동경북대로점","경상북도 안동시 경북대로 501","","","36.5735786586728","128.697180805812","2021-01-25","","06:00","00:00",0,1,0,1,1,0,0,0,0,0,0,1,0,"2026-04-29","2026-04-29"
"21688","청주오창센터점","충청북도 청주시 청원구 오창읍 양청2길 46","","","36.7211282773358","127.427854753882","2021-01-31","","00:00","00:00",1,1,0,1,1,0,0,0,0,0,0,0,0,"2026-04-29","2026-04-29"
"21690","경희대간호이과대점","서울특별시 동대문구 경희대로 26","","","37.5939491407769","127.054890960564","2021-01-31","","00:00","00:00",1,0,0,0,0,0,0,0,1,0,0,0,0,"2026-04-29","2026-04-29"
